house_price	surface	rooms_in_house	floor_in_house	total_house_floors	agency	address	latitude	longitude	location	is_last_floor	dist
10000	47	1	8	10	False	Липецк,  улица Белянского, 12 	52.606946449999995	39.50181181484047	Липецк,  улица Белянского, 12 , р-н Советский	False	6.521421824154973
16000	54	2	10	10	False	Липецк,  ул. Валентины Терешковой, 29А 	52.61310095	39.57484113518641	Липецк,  ул. Валентины Терешковой, 29А , р-н Советский	True	1.6416515817856434
20000	50	1	9	16	False	Липецк,  ул. Космонавтов, 3А 	52.61672455	39.580665518235364	Липецк,  ул. Космонавтов, 3А , р-н Советский	False	1.4692530989624284
9000	56	2	8	16	True	Липецк,  ул. Свиридова, 8 	52.57901175	39.50515657827046	Липецк,  ул. Свиридова, 8 , р-н Октябрьский	False	7.11370240492388
13000	62	2	3	9	True	Липецк,  ул Гоголя, 21 	52.60030424999999	39.569288449999995	Липецк,  ул Гоголя, 21 , р-н Октябрьский	False	2.165062986020563
15000	49	2	5	9	False	Липецк,  Московская ул., 139 	52.59748235	39.51258825	Липецк,  Московская ул., 139 , р-н Советский	False	5.924390712307203
10000	45.8	1	20	22	False	Липецк,  ул. Бехтеева, 5 	52.6054141	39.507691	Липецк,  ул. Бехтеева, 5 , р-н Советский	False	6.13161203431909
8500	18.5	1	4	5	False	Липецк,  ул. Циолковского, 4/2 	52.616263149999995	39.54811170980631	Липецк,  ул. Циолковского, 4/2 , р-н Советский	False	3.4814245823256535
12000	52	2	7	10	True	Липецк,  ул. Стаханова, 39 	52.5863744	39.52280363390639	Липецк,  ул. Стаханова, 39 , р-н Октябрьский	False	5.6758847046547025
12000	41	1	14	17	False	Липецк,  ул. Свиридова 	52.5768107	39.5193964	Липецк,  ул. Свиридова , р-н Октябрьский	False	6.4090265909644115
9000	40	1	8	10	False	Липецк,  ул. Сергея Казьмина, 6 	52.59604046630435	39.55364041515763	Липецк,  ул. Сергея Казьмина, 6 , р-н Правобережный	False	3.3262857995316346
10000	38	1	7	13	True	Липецк,  ул. Свиридова, 10 	52.57836465	39.50594683185359	Липецк,  ул. Свиридова, 10 , р-н Октябрьский	False	7.100485428939907
12000	52	2	1	9	False	Липецк,  ул. Лутова, 12 	52.58963075	39.58373821204718	Липецк,  ул. Лутова, 12 , р-н Октябрьский	False	2.3437592900999054
12000	38	1	11	15	False	Липецк,  ул. Гагарина, 28 	52.61804225	39.605996097400705	Липецк,  ул. Гагарина, 28 , р-н Правобережный	False	1.1603428346550906
11000	68.5	1	4	12	False	Липецк,  ул. Леонтия Кривенкова, 35 	52.5913997	39.514808	Липецк,  ул. Леонтия Кривенкова, 35 , р-н Октябрьский	False	5.962303365733157
8000	41	1	4	10	True	Липецк,  ул. Катукова, 19 	52.5816297	39.5259593	Липецк,  ул. Катукова, 19 , р-н Октябрьский	False	5.744506221983606
10000	39	1	5	10	True	Липецк,  ул. Замятина 	52.6055486	39.5030432	Липецк,  ул. Замятина , р-н Советский	False	6.4450374540972675
12000	35	1	4	5	False	Липецк,  ул. Чапаева, 4 	52.6168427	39.6327832	Липецк,  ул. Чапаева, 4 , р-н Правобережный	False	2.5180658720745703
8000	43	2	3	5	False	Липецк,  ул. Валентины Терешковой, 38А 	52.61295385	39.56922945562077	Липецк,  ул. Валентины Терешковой, 38А , р-н Советский	False	2.0045768487822495
10000	35	1	4	10	False	Липецк,  ул. Сергея Казьмина, 5 	52.59604046630435	39.55364041515763	Липецк,  ул. Сергея Казьмина, 5 , р-н Правобережный	False	3.3262857995316346
12000	46	2	2	5	True	 Липецк, Советская улица, 77 	52.60376135	39.57671096788954	 Липецк, Советская улица, 77 , р-н Советский	False	1.5496900219429293
7000	44	2	1	5	False	Липецк,  ул. Космонавтов, 47/4 	52.6031742	39.54178725138114	Липецк,  ул. Космонавтов, 47/4 , р-н Советский	False	3.8614833248051172
8000	44	2	4	5	False	Липецк,  ул. Циолковского, 30/3 	52.609033999999994	39.567156686968644	Липецк,  ул. Циолковского, 30/3 , р-н Советский	False	2.0915009237389786
5000	16	1	3	5	True	Липецк,  ул. Циолковского, 5/2 	52.6103601	39.5681867	Липецк,  ул. Циолковского, 5/2 , р-н Советский	False	2.0288817043532172
8500	39	1	4	10	True	Липецк,  ул. Белана 	52.5862385	39.5074866	Липецк,  ул. Белана , р-н Октябрьский	False	6.62943143834611
20000	60	2	9	14	True	 Липецк, проспект Победы, 71 	52.5904713	39.5589218	 Липецк, проспект Победы, 71 , р-н Октябрьский	False	3.3445964299477615
15000	42.3	3	4	5	True	Липецк,  ул.Космонавтов д.9 	52.6092538	39.5483386	Липецк,  ул.Космонавтов д.9 , р-н Советский	False	3.3664858885920586
10000	50	1	4	15	True	 Липецк, улица М.И. Неделина, 15А 	52.59604046630435	39.55364041515763	 Липецк, улица М.И. Неделина, 15А , р-н Октябрьский	False	3.3262857995316346
50000	143	3	5	10	True	 Липецк, проспект Победы, 22 	52.5968179	39.56434571975868	 Липецк, проспект Победы, 22 , р-н Октябрьский	False	2.643697037773644
8000	38	1	4	8	True	Липецк,  ул. Хорошавина, 21 	52.58505915	39.50992117211728	Липецк,  ул. Хорошавина, 21 , р-н Октябрьский	False	6.529155539232425
15000	62	3	2	5	True	 Липецк, посёлок Матырский, Российская улица, 20 	52.59604046630435	39.55364041515763	 Липецк, посёлок Матырский, Российская улица, 20 , р-н Левобережный	False	3.3262857995316346
8000	48	2	1	5	True	Липецк,  ул. Филипченко 	52.6043597	39.5462539	Липецк,  ул. Филипченко , р-н Советский	False	3.5423508822490035
10000	46	2	3	5	False	Липецк,  ул. Циолковского, 33 	52.6113109	39.566973250000004	Липецк,  ул. Циолковского, 33 , р-н Советский	False	2.1220348658055816
15000	45	1	3	4	True	Липецк,  ул. Космонавтов 	52.6170902	39.5795058	Липецк,  ул. Космонавтов , р-н Советский	False	1.5565861252659845
9000	41	1	8	20	False	Липецк,  ул. Хренникова, 1 	52.59590325	39.49572775	Липецк,  ул. Хренникова, 1 , р-н Советский	False	7.078421200131009
20000	50	1	7	9	False	Липецк,  ул. Балмочных, 32 	52.62077	39.5869969	Липецк,  ул. Балмочных, 32 , р-н Правобережный	False	1.526190853480833
13000	31	1	3	14	True	Липецк,  ул. Водопьянова, 33 	52.595722699999996	39.53621234999999	Липецк,  ул. Водопьянова, 33 , р-н Октябрьский	False	4.434253421136778
25000	72	2	5	16	True	Липецк,  ул. Валентина Скороходова, 21 	52.5982674	39.595186	Липецк,  ул. Валентина Скороходова, 21 , р-н Советский	False	1.1890163926314485
8000	48	2	3	5	True	Липецк,  ул. Космонавтов, 13 	52.6155002	39.562652275348725	Липецк,  ул. Космонавтов, 13 , р-н Советский	False	2.509256173415733
10000	40	1	2	5	False	Липецк,  ул. Гагарина, 103к1 	52.6214759	39.5532858	Липецк,  ул. Гагарина, 103к1 , р-н Советский	False	3.342228723181583
15000	70	2	12	14	False	Липецк,  ул. Шерстобитова, 22 	52.58069985	39.505586199999996	Липецк,  ул. Шерстобитова, 22 , р-н Октябрьский	False	7.001935557523135
8000	37	1	4	7	True	Липецк,  ул. Хорошавина, 21 	52.58505915	39.50992117211728	Липецк,  ул. Хорошавина, 21 , р-н Октябрьский	False	6.529155539232425
9000	36	1	4	5	True	Липецк,  Горняцкая ул., 2 	52.618957300000005	39.610249172814825	Липецк,  Горняцкая ул., 2 , р-н Правобережный	False	1.3999535055395755
7000	38	1	5	10	True	Липецк,  ул. Хорошавина 	52.5849355	39.5129411	Липецк,  ул. Хорошавина , р-н Октябрьский	False	6.348334496264907
7500	37	1	1	10	True	Липецк,  Депутатская ул., 52 	52.59079075	39.5696154680965	Липецк,  Депутатская ул., 52 , р-н Октябрьский	False	2.779856404168779
8000	36	1	3	4	True	Липецк,  ул. Адмирала Макарова, 26 	52.58056395	39.622593	Липецк,  ул. Адмирала Макарова, 26 , р-н Левобережный	False	3.5568644774984755
15000	52	2	7	10	True	Липецк,  ул. Валентины Терешковой, 29А 	52.61310095	39.57484113518641	Липецк,  ул. Валентины Терешковой, 29А , р-н Советский	False	1.6416515817856434
7000	32	1	3	9	False	Липецк,  ул. Теперика, 7 	52.58063625	39.523388921917956	Липецк,  ул. Теперика, 7 , р-н Октябрьский	False	5.950841127196291
6000	33	1	6	9	True	 Липецк, посёлок Матырский, Моршанская улица, 6 	52.59604046630435	39.55364041515763	 Липецк, посёлок Матырский, Моршанская улица, 6 , р-н Левобережный	False	3.3262857995316346
8000	35	1	6	10	False	Липецк,  ул. Катукова, 4 	52.580507850000004	39.53325960129545	Липецк,  ул. Катукова, 4 , р-н Октябрьский	False	5.402175502940835
12000	68.1	2	9	10	False	Липецк,  ул. Тельмана, 90 	52.621277750000004	39.58943593286698	Липецк,  ул. Тельмана, 90 , р-н Правобережный	False	1.504403025237453
5000	50	2	3	5	False	Липецк,  посёлок Матырский, Российская ул., 19 	52.59604046630435	39.55364041515763	Липецк,  посёлок Матырский, Российская ул., 19 , р-н Левобережный	False	3.3262857995316346
7000	25	1	2	5	True	 Липецк, улица Валентины Терешковой 	52.6061522	39.5734019	 Липецк, улица Валентины Терешковой , р-н Советский	False	1.6943816310401092
20000	80	3	9	9	False	Липецк,  ул. Калинина, 1Б 	52.5997991	39.5969472	Липецк,  ул. Калинина, 1Б , р-н Советский	True	1.0055409179930686
10000	45	2	4	5	True	Липецк,  ул. Космонавтов, 44/1 	52.6168982	39.56187885	Липецк,  ул. Космонавтов, 44/1 , р-н Советский	False	2.608791987791205
13000	61	2	11	22	True	Липецк,  ул. Хренникова, 8 	52.5935047	39.4913162	Липецк,  ул. Хренникова, 8 , р-н Советский	False	7.428161943886513
15000	48	2	1	4	False	Липецк,  Прокатная ул., 11А 	52.57728085	39.62164075	Липецк,  Прокатная ул., 11А , р-н Левобережный	False	3.8562987450403754
15000	41	1	2	14	True	Липецк,  пр-т Победы, 71 	52.59604046630435	39.55364041515763	Липецк,  пр-т Победы, 71 , р-н Октябрьский	False	3.3262857995316346
20000	62	2	7	10	True	Липецк,  Ангарская ул., 23А 	52.5925465	39.45517	Липецк,  Ангарская ул., 23А , р-н Советский	False	9.847165965054788
11000	37.7	1	10	14	False	Липецк,  ул. Стаханова, 61 	52.5732638	39.5127594	Липецк,  ул. Стаханова, 61 , р-н Октябрьский	False	7.0029110012710385
35000	85	2	3	15	True	Липецк,  Терешкова,25 а 	52.59604046630435	39.55364041515763	Липецк,  Терешкова,25 а , р-н Советский	False	3.3262857995316346
12000	64	3	4	5	True	 Липецк, улица Ибаррури, 4 	52.5394063	39.5655223	 Липецк, улица Ибаррури, 4 , р-н Октябрьский	False	8.031540420028579
10000	32	1	3	5	True	 Липецк, улица Плеханова, 47 	52.6147804	39.60240736980818	 Липецк, улица Плеханова, 47 , р-н Правобережный	False	0.7274426851645976
8500	30	1	3	5	False	Липецк,  Советский район, 9-й микрорайон, 23 	52.59604046630435	39.55364041515763	Липецк,  Советский район, 9-й микрорайон, 23 , р-н Советский	False	3.3262857995316346
20000	50	1	9	16	False	Липецк,  ул. Космонавтов, 3А 	52.61672455	39.580665518235364	Липецк,  ул. Космонавтов, 3А , р-н Советский	False	1.4692530989624284
6000	35	1	2	4	False	Липецк,  ул. Володи Бачурина, 10 	52.54185635	39.576074199999994	Липецк,  ул. Володи Бачурина, 10 , р-н Октябрьский	False	7.5978431333394765
10000	40	1	9	19	False	Липецк,  ул Замятина Е.И., 4б 	52.6055486	39.5030432	Липецк,  ул Замятина Е.И., 4б , р-н Советский	False	6.4450374540972675
8000	37	1	6	10	True	Липецк,  Депутатская ул., 51А 	52.5913703	39.57224422162514	Липецк,  Депутатская ул., 51А , р-н Октябрьский	False	2.6113187621029392
10000	44	1	8	19	False	Липецк,  ул. Хренникова, 5 	52.59463035	39.492284999999995	Липецк,  ул. Хренникова, 5 , р-н Советский	False	7.336236758821518
10000	43	1	12	13	False	Липецк,  ул. Свиридова, 6 	52.57966815	39.5036959063348	Липецк,  ул. Свиридова, 6 , р-н Октябрьский	False	7.168037467524915
19000	69	2	14	17	False	Липецк,  проспект победы 128 	52.5811009	39.5363679	Липецк,  проспект победы 128 , р-н Октябрьский	False	5.193008677652967
11000	39	1	6	10	False	Липецк,  ул. Леонтия Кривенкова, 35 	52.5913997	39.514808	Липецк,  ул. Леонтия Кривенкова, 35 , р-н Октябрьский	False	5.962303365733157
8000	30	1	2	5	True	Липецк,  Советская ул. 	52.6041634	39.5848	Липецк,  Советская ул. , р-н Советский	False	1.0347432771214962
9000	47	1	9	14	False	Липецк,  ул. Белана, 18 	52.5862385	39.5074866	Липецк,  ул. Белана, 18 , р-н Октябрьский	False	6.62943143834611
6000	28	1	2	5	False	Липецк,  ул. Вермишева, 18/1 	52.6047369	39.5370992	Липецк,  ул. Вермишева, 18/1 , р-н Советский	False	4.152544803722464
8000	36	1	5	9	True	Липецк,  пр-т имени 60-летия СССР, 35 	52.59604046630435	39.55364041515763	Липецк,  пр-т имени 60-летия СССР, 35 , р-н Октябрьский	False	3.3262857995316346
7000	34	1	2	5	True	Липецк,  ул. Циолковского, 10/1 	52.614954350000005	39.551279050000005	Липецк,  ул. Циолковского, 10/1 , р-н Советский	False	3.23967026850423
5000	36.6	1	2	10	False	Липецк,  ул. Яна Фабрициуса, 1 	52.6072426	39.53652421251833	Липецк,  ул. Яна Фабрициуса, 1 , р-н Советский	False	4.1702078491224075
16500	40	1	7	14	False	Липецк,  Полиграфическая ул., 8 	52.59964585	39.5202753803175	Липецк,  Полиграфическая ул., 8 , р-н Советский	False	5.365591406651658
8000	60	4	4	5	True	Липецк,  ул. М.И. Неделина, 45 	52.59604046630435	39.55364041515763	Липецк,  ул. М.И. Неделина, 45 , р-н Октябрьский	False	3.3262857995316346
6000	47	2	2	5	True	Липецк,  ул. Циолковского, 32/2 	52.6093401	39.568663341576595	Липецк,  ул. Циолковского, 32/2 , р-н Советский	False	1.9901530844969402
10000	40	1	8	19	False	Липецк,  ул. Замятина, 4Б 	52.6055486	39.5030432	Липецк,  ул. Замятина, 4Б , р-н Советский	False	6.4450374540972675
8000	19	1	5	5	True	Липецк,  ул. Валентины Терешковой, 32/2 	52.61326565	39.56663800540541	Липецк,  ул. Валентины Терешковой, 32/2 , р-н Советский	True	2.183396695784964
8000	42	2	1	2	True	Липецк,  ул. Семёна Кондарева, 15 	52.53942605	39.5725461	Липецк,  ул. Семёна Кондарева, 15 , р-н Октябрьский	False	7.911990925095899
22000	43	1	14	18	True	Липецк,  ул. Свиридова, 18 	52.5798288	39.5045115	Липецк,  ул. Свиридова, 18 , р-н Октябрьский	False	7.11065628564944
7000	32	1	2	5	False	Липецк,  15-й микрорайон, 2 	52.59734615	39.548790081825786	Липецк,  15-й микрорайон, 2 , р-н Октябрьский	False	3.5716370365717505
8000	41	1	6	12	False	Липецк,  ул. Замятина, 1А 	52.6044443	39.49969965	Липецк,  ул. Замятина, 1А , р-н Советский	False	6.67909720384105
8000	36	1	2	5	False	Липецк,  ул. Адмирала Макарова, 18А 	52.5827867	39.6220327	Липецк,  ул. Адмирала Макарова, 18А , р-н Левобережный	False	3.3215063243803065
7000	45	1	3	17	False	Липецк,  ул. Свиридова, 8 	52.57901175	39.50515657827046	Липецк,  ул. Свиридова, 8 , р-н Октябрьский	False	7.11370240492388
10000	45	2	3	5	False	Липецк,  ул. Желябова, 12 	52.6147558	39.600738250000006	Липецк,  ул. Желябова, 12 , р-н Правобережный	False	0.6864844097645878
15000	64	3	3	9	True	Липецк,  ул Московская д. 143 	52.59604046630435	39.55364041515763	Липецк,  ул Московская д. 143 , р-н Советский	False	3.3262857995316346
11000	80	2	6	17	True	 Липецк, улица Лутова, 18 	52.589055450000004	39.5846635589735	 Липецк, улица Лутова, 18 , р-н Октябрьский	False	2.3776261267107413
25000	40	1	1	14	True	 Липецк, улица Шевченко, 7 	52.61944945	39.602046543144525	 Липецк, улица Шевченко, 7 , р-н Правобережный	False	1.2146787330460214
25000	100	3	3	8	True	 Липецк, Угловая улица, 15 	52.6158489	39.60096350032445	 Липецк, Угловая улица, 15 , р-н Правобережный	False	0.8079710065926976
45000	80	2	14	16	True	 Липецк, улица Космонавтов, 3А 	52.61672455	39.580665518235364	 Липецк, улица Космонавтов, 3А , р-н Советский	False	1.4692530989624284
35000	47	1	17	19	False	Липецк,  ул. Осканова, 6 	52.59430475	39.488125450029564	Липецк,  ул. Осканова, 6 , р-н Советский	False	7.6193256737132184
9000	35.8	1	3	9	True	 Липецк, улица Петра Смородина, 20, подъезд 7 	52.59604046630435	39.55364041515763	 Липецк, улица Петра Смородина, 20, подъезд 7 , р-н Октябрьский	False	3.3262857995316346
12000	18	1	3	5	False	Липецк,  Волгоградская ул., 7А 	52.5405733	39.585912505949175	Липецк,  Волгоградская ул., 7А , р-н Октябрьский	False	7.637705689417417
9000	46	2	3	5	False	Липецк,  ул. Гагарина, 111к1 	52.6214759	39.5532858	Липецк,  ул. Гагарина, 111к1 , р-н Советский	False	3.342228723181583
10000	50	2	3	10	False	Липецк,  посёлок Матырский, Моршанская ул., 6А 	52.59604046630435	39.55364041515763	Липецк,  посёлок Матырский, Моршанская ул., 6А , р-н Левобережный	False	3.3262857995316346
11000	46	1	11	13	False	Липецк,  ул. Валентина Скороходова, 21 	52.5982674	39.595186	Липецк,  ул. Валентина Скороходова, 21 , р-н Советский	False	1.1890163926314485
13000	39	1	1	10	False	Липецк,  ул. Сергея Казьмина, 2 	52.59604046630435	39.55364041515763	Липецк,  ул. Сергея Казьмина, 2 , р-н Правобережный	False	3.3262857995316346
9000	38	1	4	10	True	Липецк,  ул. Космонавтов, 96 	52.6092538	39.5483386	Липецк,  ул. Космонавтов, 96 , р-н Советский	False	3.3664858885920586
8000	40	1	7	19	False	Липецк,  ул. Хренникова, 5 	52.59463035	39.492284999999995	Липецк,  ул. Хренникова, 5 , р-н Советский	False	7.336236758821518
10000	37	1	7	10	False	Липецк,  ул. Стаханова, 18Б 	52.59385655	39.52773325440164	Липецк,  ул. Стаханова, 18Б , р-н Октябрьский	False	5.045170211048334
10000	35	1	9	10	False	Липецк,  пл. Победы, 1 	52.6033826	39.5749071	Липецк,  пл. Победы, 1 , р-н Советский	False	1.678874954909875
10000	38	1	2	10	False	Липецк,  ул. Замятина, 4А 	52.6055486	39.5030432	Липецк,  ул. Замятина, 4А , р-н Советский	False	6.4450374540972675
11000	61	2	4	5	False	Липецк,  ул. Авиационная,31 	52.59604046630435	39.55364041515763	Липецк,  ул. Авиационная,31 , р-н Советский	False	3.3262857995316346
14000	30	1	2	5	True	Липецк,  посёлок Сырский, Детская ул., 17 	52.59604046630435	39.55364041515763	Липецк,  посёлок Сырский, Детская ул., 17 , р-н Советский	False	3.3262857995316346
6500	33	1	4	17	True	Липецк,  ул. 50 лет НЛМК, 33А 	52.591867	39.591605	Липецк,  ул. 50 лет НЛМК, 33А , р-н Октябрьский	False	1.9351249217460522
8000	42	1	1	17	False	Липецк,  Октябрьский округ, 15-й микрорайон 	52.5956433	39.54376125096255	Липецк,  Октябрьский округ, 15-й микрорайон , р-н Октябрьский	False	3.9580086103845074
17000	36	1	6	9	False	Липецк,  Полиграфическая ул., 10 	52.599282599999995	39.52124842445055	Липецк,  Полиграфическая ул., 10 , р-н Советский	False	5.308831588782298
7000	43	1	9	13	False	Липецк,  ул. Бехтеева, 10 	52.6062672	39.50969508032541	Липецк,  ул. Бехтеева, 10 , р-н Советский	False	5.990815578030668
12000	36	1	4	5	True	Липецк,  Опытная ул., 11Б 	52.6339128	39.54345357300389	Липецк,  Опытная ул., 11Б , р-н Правобережный	False	4.63280239491023
9000	31	1	2	3	True	Липецк,  посёлок Матырский, Моршанская ул., 1 	52.59604046630435	39.55364041515763	Липецк,  посёлок Матырский, Моршанская ул., 1 , р-н Левобережный	False	3.3262857995316346
6000	37.8	1	3	12	False	Липецк,  Советская ул., 28 	52.60468805	39.58396189093597	Липецк,  Советская ул., 28 , р-н Советский	False	1.0576830126443824
7000	31	1	3	5	True	Липецк,  ул. Германа Титова, 11 	52.6177483	39.55867626519337	Липецк,  ул. Германа Титова, 11 , р-н Советский	False	2.8450497101109944
10000	43.8	2	2	5	False	Липецк,  ул. Чапаева, 4 	52.6168427	39.6327832	Липецк,  ул. Чапаева, 4 , р-н Правобережный	False	2.5180658720745703
10000	62	3	3	5	False	Липецк,  посёлок Матырский, ул. Энергостроителей, 20 	52.59604046630435	39.55364041515763	Липецк,  посёлок Матырский, ул. Энергостроителей, 20 , р-н Левобережный	False	3.3262857995316346
9000	26	1	9	9	False	Липецк,  ул. М.И. Неделина, 14 	52.59604046630435	39.55364041515763	Липецк,  ул. М.И. Неделина, 14 , р-н Советский	True	3.3262857995316346
13000	65	2	4	4	True	 Липецк, проспект имени 60-летия СССР, 9А 	52.5844614	39.5382675	 Липецк, проспект имени 60-летия СССР, 9А , р-н Октябрьский	True	4.872428910115066
10000	37	1	1	5	False	Липецк,  посёлок Матырский, ул. Энергостроителей, 4 	52.59604046630435	39.55364041515763	Липецк,  посёлок Матырский, ул. Энергостроителей, 4 , р-н Левобережный	False	3.3262857995316346
30000	50	2	1	2	True	Липецк,  Интернациональная ул., 46 	52.61506305	39.60888315	Липецк,  Интернациональная ул., 46 , р-н Правобережный	False	1.012206297299144
11000	42	2	3	5	False	Липецк,  посёлок Сырский, Рудный пер., 4 	52.59604046630435	39.55364041515763	Липецк,  посёлок Сырский, Рудный пер., 4 , р-н Советский	False	3.3262857995316346
7500	18	1	5	5	False	Липецк,  ул. Циолковского, 7/2 	52.6171026	39.552273507635036	Липецк,  ул. Циолковского, 7/2 , р-н Советский	True	3.2337091368966573
9000	46	2	4	5	False	Липецк,  ул. Германа Титова, 7/5 	52.620349000000004	39.560007553483445	Липецк,  ул. Германа Титова, 7/5 , р-н Советский	False	2.877618041492167
6500	46	2	2	3	False	Липецк,  посёлок Сырский, Ново-Весовая ул., 22 	52.59604046630435	39.55364041515763	Липецк,  посёлок Сырский, Ново-Весовая ул., 22 , р-н Советский	False	3.3262857995316346
12000	37	1	4	10	False	Липецк,  ул. Белана, 9 	52.5862385	39.5074866	Липецк,  ул. Белана, 9 , р-н Октябрьский	False	6.62943143834611
10000	36	1	9	10	False	Липецк,  посёлок Сырский, ул. Ударников, 8/1 	52.59604046630435	39.55364041515763	Липецк,  посёлок Сырский, ул. Ударников, 8/1 , р-н Советский	False	3.3262857995316346
9000	44	2	4	5	False	Липецк,  ул. М.И. Неделина, 11 	52.59604046630435	39.55364041515763	Липецк,  ул. М.И. Неделина, 11 , р-н Октябрьский	False	3.3262857995316346
6000	48	2	8	9	False	Липецк,  ул. Папина 	52.5906762	39.5481891	Липецк,  ул. Папина , р-н Октябрьский	False	3.934010383201059
10000	45	1	7	9	True	Липецк,  пр-т Победы, 71 	52.59604046630435	39.55364041515763	Липецк,  пр-т Победы, 71 , р-н Октябрьский	False	3.3262857995316346
8000	81	3	4	4	False	Липецк,  ул. Гагарина, 6 	52.618329450000004	39.613968203670794	Липецк,  ул. Гагарина, 6 , р-н Правобережный	True	1.5124437998334992
13000	50	1	10	24	False	Липецк,  ул. Артёмова, 1А 	52.596026	39.4857596	Липецк,  ул. Артёмова, 1А , р-н Советский	False	7.7384155188699575
30000	24	2	4	5	True	 Липецк, улица Космонавтов, 24 	52.61740125	39.571873499586815	 Липецк, улица Космонавтов, 24 , р-н Советский	False	2.0130769359706764
1000	68	3	1	14	False	Липецк,  ул. Циолковского, 34/5 	52.60869445	39.56960359581847	Липецк,  ул. Циолковского, 34/5 , р-н Советский	False	1.9256462671828134
7000	46	2	1	5	False	Липецк,  ул. Космонавтов, 46/3 	52.617817349999996	39.560016359953835	Липецк,  ул. Космонавтов, 46/3 , р-н Советский	False	2.7629621992800613
15000	43.6	2	3	5	False	Липецк,  ул. Космонавтов, 42/2 	52.6173692	39.56288941171053	Липецк,  ул. Космонавтов, 42/2 , р-н Советский	False	2.5636437164705734
10000	30	1	8	17	True	Липецк,  ул. Артёмова, 5 	52.594904299999996	39.48643377452079	Липецк,  ул. Артёмова, 5 , р-н Советский	False	7.717674089594071
7500	40	1	4	15	True	Липецк,  ул. Замятина, 1 	52.60401675	39.50089938085149	Липецк,  ул. Замятина, 1 , р-н Советский	False	6.601745107141989
7000	19	1	3	5	False	Липецк,  ул. Циолковского, 4/3 	52.616219650000005	39.54732978217303	Липецк,  ул. Циолковского, 4/3 , р-н Советский	False	3.531756515803689
10000	67	3	6	10	True	Липецк,  пр-т Победы 	52.5895052	39.5554733	Липецк,  пр-т Победы , р-н Октябрьский	False	3.595796284907867
7000	54	2	4	12	False	Липецк,  ул. Водопьянова, 39 	52.5975359	39.533994813710734	Липецк,  ул. Водопьянова, 39 , р-н Октябрьский	False	4.516178733150224
20000	54	2	12	21	False	Липецк,  ул. Хренникова, 1 	52.59590325	39.49572775	Липецк,  ул. Хренникова, 1 , р-н Советский	False	7.078421200131009
14000	45	1	6	17	False	Липецк,  ул. Осканова, 1 	52.597032350000006	39.48933820003096	Липецк,  ул. Осканова, 1 , р-н Советский	False	7.479705041706819
16000	41	2	2	2	False	Липецк,  Молодёжная ул., 16 	52.5395829	39.57327265904762	Липецк,  Молодёжная ул., 16 , р-н Октябрьский	True	7.88432607003364
10000	48	1	5	21	True	Липецк,  ул. Осканова, 1 	52.597032350000006	39.48933820003096	Липецк,  ул. Осканова, 1 , р-н Советский	False	7.479705041706819
10000	64	3	10	10	False	Липецк,  ул. Лутова, 16 	52.5893002	39.58534612752132	Липецк,  ул. Лутова, 16 , р-н Октябрьский	True	2.33505172595924
11000	69	3	1	9	False	Липецк,  Депутатская ул., 55 	52.591838	39.57001495190514	Липецк,  Депутатская ул., 55 , р-н Октябрьский	False	2.6777278888841094
12000	42	1	5	9	False	Липецк,  ул. Замятина, 3 	52.605315149999996	39.50195958013059	Липецк,  ул. Замятина, 3 , р-н Советский	False	6.519847808311559
20000	32	1	2	4	True	Липецк,  ул. Гагарина, 32 	52.61800855	39.6034864	Липецк,  ул. Гагарина, 32 , р-н Правобережный	False	1.0881747461479498
10000	20	1	5	5	False	Липецк,  ул. Валентины Терешковой, 32/1 	52.6126924	39.56594318514803	Липецк,  ул. Валентины Терешковой, 32/1 , р-н Советский	True	2.215962872442387
7000	63	3	3	5	False	Липецк,  Советский район, 9-й микрорайон, 20А 	52.59604046630435	39.55364041515763	Липецк,  Советский район, 9-й микрорайон, 20А , р-н Советский	False	3.3262857995316346
6000	44	2	3	5	False	Липецк,  15-й микрорайон, 17 	52.595393400000006	39.54287135000001	Липецк,  15-й микрорайон, 17 , р-н Октябрьский	False	4.024324203649501
23000	77	3	4	4	True	Липецк,  ул Ильича, 10 	52.5418207	39.58680352904952	Липецк,  ул Ильича, 10 , р-н Октябрьский	True	7.493341171715909
10000	35	1	2	5	True	Липецк,  б-р Шубина, 14 	52.59604046630435	39.55364041515763	Липецк,  б-р Шубина, 14 , р-н Октябрьский	False	3.3262857995316346
13000	13	1	4	5	True	 Липецк, улица Циолковского, 4/3 	52.616219650000005	39.54732978217303	 Липецк, улица Циолковского, 4/3 , р-н Советский	False	3.531756515803689
11000	54	3	2	5	True	 Липецк, Московская улица, 65 	52.609783	39.530117	 Липецк, Московская улица, 65 , р-н Советский	False	4.601738136831472
7000	70	2	9	10	True	 Липецк, улица Тельмана, 90 	52.621277750000004	39.58943593286698	 Липецк, улица Тельмана, 90 , р-н Правобережный	False	1.504403025237453
10000	33	1	9	10	False	Липецк,  пл. Победы, 1 	52.6033826	39.5749071	Липецк,  пл. Победы, 1 , р-н Советский	False	1.678874954909875
12000	38	1	9	17	False	Липецк,  ул. Свиридова, 20к1 	52.5798288	39.5045115	Липецк,  ул. Свиридова, 20к1 , р-н Октябрьский	False	7.11065628564944
12000	87	3	8	10	True	Липецк,  ул. Валентины Терешковой, 13Б 	52.6143922	39.57147007094444	Липецк,  ул. Валентины Терешковой, 13Б , р-н Советский	False	1.9032215972428221
9000	50	1	11	16	True	 Липецк, улица Зегеля, 21А 	52.61395465	39.596789150000006	 Липецк, улица Зегеля, 21А , р-н Советский	False	0.5784747078233422
25000	35	1	7	9	True	 Липецк, улица Гагарина, 101 	52.6222983	39.569073	 Липецк, улица Гагарина, 101 , р-н Советский	False	2.469601673807364
25000	100	3	9	15	True	Липецк,  ул. Космонавтов, 3А 	52.61672455	39.580665518235364	Липецк,  ул. Космонавтов, 3А , р-н Советский	False	1.4692530989624284
7000	31.8	1	3	5	False	Липецк,  ул. Папина, 33 	52.590248349999996	39.55031317674108	Липецк,  ул. Папина, 33 , р-н Октябрьский	False	3.8366202116488552
50000	57	2	6	15	True	 Липецк, улица Стаханова, 19 	52.5732638	39.5127594	 Липецк, улица Стаханова, 19 , р-н Октябрьский	False	7.0029110012710385
9000	31	1	2	5	False	Липецк,  ул. Филипченко, 12/2 	52.60228965	39.54538925449065	Липецк,  ул. Филипченко, 12/2 , р-н Советский	False	3.639296477880125
15000	33	1	7	10	False	Липецк,  ул. Вилена Огнева, 2 	52.54052865	39.573896722178645	Липецк,  ул. Вилена Огнева, 2 , р-н Октябрьский	False	7.772510344972676
10000	56.8	2	1	4	False	Липецк,  ул. Жуковского, 4 	52.54210245	39.5794702332296	Липецк,  ул. Жуковского, 4 , р-н Октябрьский	False	7.5291127997911715
7000	44	3	5	5	False	Липецк,  ул. Валентины Терешковой, 1/1 	52.621790950000005	39.5689596	Липецк,  ул. Валентины Терешковой, 1/1 , р-н Советский	True	2.4419022388708784
7500	32	1	4	10	False	Липецк,  ул. Коцаря, 5 	52.57632135	39.5151333	Липецк,  ул. Коцаря, 5 , р-н Октябрьский	False	6.680503072043574
17000	65	2	4	9	False	Липецк,  б-р Есенина, 5 	52.59604046630435	39.55364041515763	Липецк,  б-р Есенина, 5 , р-н Октябрьский	False	3.3262857995316346
9000	45	2	3	5	True	Липецк,  ул. Ленина, 27 	52.6146336	39.609601299999994	Липецк,  ул. Ленина, 27 , р-н Правобережный	False	1.0169849420472934
9000	60	2	1	10	True	Липецк,  ул. 8 Марта, 3 	52.606746349999995	39.58666245	Липецк,  ул. 8 Марта, 3 , р-н Советский	False	0.8035643204166385
10000	30	1	3	5	False	Липецк,  ул. Толстого 9 	52.59604046630435	39.55364041515763	Липецк,  ул. Толстого 9 , р-н Советский	False	3.3262857995316346
8000	31	1	5	5	True	 Липецк, Советская улица, 45 	52.60383885	39.58241930148929	 Липецк, Советская улица, 45 , р-н Советский	True	1.1935084886184877
10000	23.6	2	3	5	False	Липецк,  Юношеская ул., 23А 	52.58225965	39.46914568458386	Липецк,  Юношеская ул., 23А , р-н Советский	False	9.219757587638693
7000	42	1	1	17	True	Липецк,  улица Свиридова, 20к4 	52.5798288	39.5045115	Липецк,  улица Свиридова, 20к4 , р-н Октябрьский	False	7.11065628564944
6000	44	1	5	22	False	Липецк,  Советский район 	51.6244158	39.0771051	Липецк,  Советский район , р-н Правобережный	False	115.19816228389851
10000	56	2	4	9	False	Липецк,  Липовская ул., 1 	52.61575055	39.58800881409032	Липецк,  Липовская ул., 1 , р-н Советский	False	1.0280845076921752
10000	47	1	11	15	False	Липецк,  ул. Котовского, 14 	52.5970024	39.584864621369135	Липецк,  ул. Котовского, 14 , р-н Октябрьский	False	1.5881727139399933
16000	51	2	3	10	False	Липецк,  ул. Ленина, 25 	52.6141986	39.608229635808975	Липецк,  ул. Ленина, 25 , р-н Правобережный	False	0.9147928169434018
20000	57	2	7	16	True	 Липецк, улица М.И. Неделина, 10 	52.59604046630435	39.55364041515763	 Липецк, улица М.И. Неделина, 10 , р-н Советский	False	3.3262857995316346
8000	32	1	5	5	False	Липецк,  Первомайская ул., 80 	52.602980450000004	39.576845649999996	Липецк,  Первомайская ул., 80 , р-н Советский	True	1.5749667570028256
18000	41	1	6	10	False	Липецк,  Политехническая ул., 7 	52.60689155	39.50870067846698	Липецк,  Политехническая ул., 7 , р-н Советский	False	6.055214273203998
10000	50	2	2	9	True	Липецк,  пр-т имени 60-летия СССР, 2 	52.59604046630435	39.55364041515763	Липецк,  пр-т имени 60-летия СССР, 2 , р-н Октябрьский	False	3.3262857995316346
10000	45	2	4	5	True	Липецк,  Ангарская ул., 27 	52.58417125	39.475537119202215	Липецк,  Ангарская ул., 27 , р-н Советский	False	8.741381099229653
11000	50	2	2	3	True	Липецк,  ул. Фрунзе, 12 	52.601912999999996	39.593141609680856	Липецк,  ул. Фрунзе, 12 , р-н Советский	False	0.8359977793112492
9000	34	1	4	5	True	Липецк,  ул. Космонавтов, 72 	52.6119987	39.5501919	Липецк,  ул. Космонавтов, 72 , р-н Советский	False	3.2598317304514532
8000	48	2	1	5	True	Липецк,  ул. Вермишева, 22 	52.6047369	39.5370992	Липецк,  ул. Вермишева, 22 , р-н Советский	False	4.152544803722464
10000	54	2	5	10	True	Липецк,  ул. Стаханова, 18Б 	52.59385655	39.52773325440164	Липецк,  ул. Стаханова, 18Б , р-н Октябрьский	False	5.045170211048334
12000	64	3	3	9	True	Липецк,  Депутатская ул., 61 	52.59217855	39.568224518515706	Липецк,  Депутатская ул., 61 , р-н Октябрьский	False	2.7392915935096376
13000	36	1	5	5	False	Липецк,  Сиреневый пр., 4 	52.59604046630435	39.55364041515763	Липецк,  Сиреневый пр., 4 , р-н Октябрьский	True	3.3262857995316346
10000	65	2	8	16	True	 Липецк, улица Шевченко, 7 	52.61944945	39.602046543144525	 Липецк, улица Шевченко, 7 , р-н Правобережный	False	1.2146787330460214
20000	45	1	4	22	True	Липецк,  ул. Шевченко, 7 	52.61944945	39.602046543144525	Липецк,  ул. Шевченко, 7 , р-н Правобережный	False	1.2146787330460214
9000	41	1	7	16	False	Липецк,  ул. Ульяны Громовой, 5 	52.6019955	39.57063445	Липецк,  ул. Ульяны Громовой, 5 , р-н Октябрьский	False	2.0049088305666616
15000	58	3	7	9	False	Липецк,  ул. Мичурина, 32 	52.59697235	39.57445450101214	Липецк,  ул. Мичурина, 32 , р-н Октябрьский	False	2.0704257599239537
35000	46	2	1	5	True	Липецк,  ул. Гагарина, 159 	52.6200085	39.55114914999999	Липецк,  ул. Гагарина, 159 , р-н Советский	False	3.4110642314298825
10000	50	3	2	5	True	Липецк,  Первомайская ул., 99 	52.60263175	39.5796957927074	Липецк,  Первомайская ул., 99 , р-н Советский	False	1.4196736032312385
25000	23	2	2	5	False	Липецк,  ул. Валентины Терешковой, 32/1 	52.6126924	39.56594318514803	Липецк,  ул. Валентины Терешковой, 32/1 , р-н Советский	False	2.215962872442387
16000	36	1	3	5	False	Липецк,  Советская ул., 26В 	52.6045559	39.5958028	Липецк,  Советская ул., 26В , р-н Советский	False	0.49697047181046733
20000	39	1	3	17	True	Липецк,  ул. Шевченко, 7 	52.61944945	39.602046543144525	Липецк,  ул. Шевченко, 7 , р-н Правобережный	False	1.2146787330460214
9000	52	2	9	10	False	Липецк,  ул. Стаханова, 34 	52.58765445	39.5221937	Липецк,  ул. Стаханова, 34 , р-н Октябрьский	False	5.652162386592224
10000	30	1	4	5	True	Липецк,  ул. Ушинского, 30 	52.645731049999995	39.654372869546506	Липецк,  ул. Ушинского, 30 , р-н Правобережный	False	5.606716739125547
20000	42	2	1	5	False	Липецк,  ул. Космонавтов, 25/4 	52.614106199999995	39.55930077077922	Липецк,  ул. Космонавтов, 25/4 , р-н Советский	False	2.6887344784821727
8000	46	2	4	5	True	Липецк,  Осенний пр., 3 	52.59604046630435	39.55364041515763	Липецк,  Осенний пр., 3 , р-н Левобережный	False	3.3262857995316346
7000	33	1	1	5	False	Липецк,  посёлок Сырский, Прудная ул., 2 	52.59604046630435	39.55364041515763	Липецк,  посёлок Сырский, Прудная ул., 2 , р-н Советский	False	3.3262857995316346
7000	65	3	3	10	True	Липецк,  б-р Есенина, 9 	52.59604046630435	39.55364041515763	Липецк,  б-р Есенина, 9 , р-н Октябрьский	False	3.3262857995316346
8000	36	1	8	10	False	Липецк,  ул. Филипченко, 8/2 	52.60248535	39.54407912300552	Липецк,  ул. Филипченко, 8/2 , р-н Советский	False	3.72212601108472
9000	23	1	5	5	False	Липецк,  ул. Жуковского, 21 	52.5358407	39.57003177012821	Липецк,  ул. Жуковского, 21 , р-н Октябрьский	True	8.338947694527274
20000	38.9	1	17	19	True	Липецк,  ул. Стаханова, 59 	52.5807296	39.51416468347366	Липецк,  ул. Стаханова, 59 , р-н Октябрьский	False	6.485465417769452
5000	25	1	4	4	False	Липецк,  ул. Марины Расковой, 2А 	52.5729262	39.6194778	Липецк,  ул. Марины Расковой, 2А , р-н Левобережный	True	4.24957865885993
6500	38	1	9	15	True	Липецк,  Левобережная ул., 5 	52.58700295	39.613393268669135	Липецк,  Левобережная ул., 5 , р-н Левобережный	False	2.6406863583095115
12000	100	4	9	10	True	 Липецк, улица Катукова, 23 	52.584510449999996	39.52121791871757	 Липецк, улица Катукова, 23 , р-н Октябрьский	False	5.865364124327325
7000	55	2	14	25	False	Липецк,  ул. Бехтеева, 9 	52.6054141	39.507691	Липецк,  ул. Бехтеева, 9 , р-н Советский	False	6.13161203431909
9500	52	2	9	10	True	Липецк,  ул. Сергея Казьмина, 7 	52.59604046630435	39.55364041515763	Липецк,  ул. Сергея Казьмина, 7 , р-н Правобережный	False	3.3262857995316346
30000	36	1	1	9	False	Липецк,  Советский округ, 9-й микрорайон, 14 	52.60952275	39.53398571938493	Липецк,  Советский округ, 9-й микрорайон, 14 , р-н Советский	False	4.339129117605291
20000	30	1	5	5	False	Липецк,  Осенний пр., 2 	52.59604046630435	39.55364041515763	Липецк,  Осенний пр., 2 , р-н Левобережный	True	3.3262857995316346
13000	36	1	8	17	True	 Липецк, улица Лутова, 6 	52.5900414	39.5842262	 Липецк, улица Лутова, 6 , р-н Октябрьский	False	2.2885103792656
9500	50	1	1	17	True	 Липецк, улица Шевченко, 7 	52.61944945	39.602046543144525	 Липецк, улица Шевченко, 7 , р-н Правобережный	False	1.2146787330460214
9000	47	2	2	4	True	Липецк,  ул. Адмирала Макарова, 24 	52.58152535	39.622233965101145	Липецк,  ул. Адмирала Макарова, 24 , р-н Левобережный	False	3.451043513563764
9000	36	1	2	9	False	Липецк,  ул. Мичурина, 28А 	52.597135449999996	39.57567616506424	Липецк,  ул. Мичурина, 28А , р-н Октябрьский	False	1.9953980304129182
25000	62	2	8	9	False	Липецк,  пр-т Победы, 71 	52.59604046630435	39.55364041515763	Липецк,  пр-т Победы, 71 , р-н Октябрьский	False	3.3262857995316346
8000	30	1	2	5	False	Липецк,  Советская ул., 77 	52.60376135	39.57671096788954	Липецк,  Советская ул., 77 , р-н Советский	False	1.5496900219429293
9000	61	3	5	5	True	Липецк,  посёлок Матырский, ул. Энергостроителей, 6 	52.59604046630435	39.55364041515763	Липецк,  посёлок Матырский, ул. Энергостроителей, 6 , р-н Левобережный	True	3.3262857995316346
25000	53	2	4	10	False	Липецк,  ул. Доватора, 4 	52.5963878	39.56200762967741	Липецк,  ул. Доватора, 4 , р-н Октябрьский	False	2.804877694022909
14000	60	1	10	14	True	 Липецк, улица Леонтия Кривенкова, 7А 	52.5891031	39.51310083484728	 Липецк, улица Леонтия Кривенкова, 7А , р-н Октябрьский	False	6.158268622502481
25000	37	1	3	7	True	 Липецк, улица Фрунзе, 34 	52.5979977	39.59135214471146	 Липецк, улица Фрунзе, 34 , р-н Советский	False	1.285540686536477
19000	31	1	1	2	False	Липецк,  ул. Гагарина, 98 	52.6213827	39.576941123061516	Липецк,  ул. Гагарина, 98 , р-н Правобережный	False	1.9992871139636266
13000	43	1	7	9	False	Липецк,  ул. Валентины Терешковой, 13Б 	52.6143922	39.57147007094444	Липецк,  ул. Валентины Терешковой, 13Б , р-н Советский	False	1.9032215972428221
12000	65	2	7	10	True	 Липецк, Коммунальная улица, 14А 	52.598921849999996	39.58845425	 Липецк, Коммунальная улица, 14А , р-н Советский	False	1.2774426410228903
7000	67	2	8	9	False	Липецк,  ул. Котовского, д.14 	52.5963926	39.5840983	Липецк,  ул. Котовского, д.14 , р-н Октябрьский	False	1.6734874360440604
12000	40	1	12	18	True	Липецк,  ул. Меркулова, 8 	52.5908393	39.54346065	Липецк,  ул. Меркулова, 8 , р-н Октябрьский	False	4.203564395863769
15000	35	1	6	9	False	Липецк,  Депутатская ул., 53 	52.591133850000006	39.57020314225549	Липецк,  Депутатская ул., 53 , р-н Октябрьский	False	2.7247341882587035
37000	42	1	4	9	False	Липецк,  ул. Стаханова, 48 	52.5834123	39.51329867052131	Липецк,  ул. Стаханова, 48 , р-н Октябрьский	False	6.399460224717222
10000	62	3	7	10	False	Липецк,  ул. Катукова, 34 	52.5888138	39.519127700000006	Липецк,  ул. Катукова, 34 , р-н Октябрьский	False	5.790816586704528
8000	100	3	3	8	True	 Липецк, Угловая улица, 15 	52.6158489	39.60096350032445	 Липецк, Угловая улица, 15 , р-н Правобережный	False	0.8079710065926976
8000	62	2	8	14	False	Липецк,  пр-т Победы, 71 	52.59604046630435	39.55364041515763	Липецк,  пр-т Победы, 71 , р-н Октябрьский	False	3.3262857995316346
11000	41	1	15	20	False	Липецк,  ул. Гагарина, 145 	52.621916299999995	39.555671579999654	Липецк,  ул. Гагарина, 145 , р-н Советский	False	3.218323463472681
45000	33	1	1	5	True	Липецк,  ул. Ибаррури, 6 	52.5394063	39.5655223	Липецк,  ул. Ибаррури, 6 , р-н Октябрьский	False	8.031540420028579
25000	60	2	2	9	True	Липецк,  пр-т Победы, 93А 	52.59604046630435	39.55364041515763	Липецк,  пр-т Победы, 93А , р-н Октябрьский	False	3.3262857995316346
25000	38	1	14	16	True	Липецк,  Левобережная ул., 5 	52.58700295	39.613393268669135	Липецк,  Левобережная ул., 5 , р-н Левобережный	False	2.6406863583095115
9500	53	2	3	10	False	Липецк,  пр-т Победы, 118 	52.59604046630435	39.55364041515763	Липецк,  пр-т Победы, 118 , р-н Октябрьский	False	3.3262857995316346
9000	64	3	5	9	True	Липецк,  пр-т имени 60-летия СССР, 28 	52.59604046630435	39.55364041515763	Липецк,  пр-т имени 60-летия СССР, 28 , р-н Октябрьский	False	3.3262857995316346
9500	31	1	2	5	True	Липецк,  посёлок Дачный, Ярославская ул., 19 	52.59604046630435	39.55364041515763	Липецк,  посёлок Дачный, Ярославская ул., 19 , р-н Левобережный	False	3.3262857995316346
10000	42	2	1	4	True	Липецк,  Краснознамённая ул., 3 	52.54551975	39.574856369843076	Липецк,  Краснознамённая ул., 3 , р-н Октябрьский	False	7.216038789914293
18000	65	3	1	10	True	Липецк,  ул. Смургиса 	52.5969407	39.532532	Липецк,  ул. Смургиса , р-н Октябрьский	False	4.629955086315765
8000	60	2	2	14	True	Липецк,  пр-т Победы, 93 	52.59604046630435	39.55364041515763	Липецк,  пр-т Победы, 93 , р-н Октябрьский	False	3.3262857995316346
11000	44	2	1	5	True	Липецк,  Космонавтов 3/1 	52.616713149999995	39.58156652937288	Липецк,  Космонавтов 3/1 , р-н Советский	False	1.420083002535273
20000	65	3	5	9	True	Липецк,  ул. Плеханова, 3 	52.6110574	39.59346201923077	Липецк,  ул. Плеханова, 3 , р-н Советский	False	0.39771565039606627
10000	40	1	11	17	True	Липецк,  ул. Стаханова, 67 	52.57654705	39.512711566207784	Липецк,  ул. Стаханова, 67 , р-н Октябрьский	False	6.805790140833747
15000	18.1	1	3	5	True	Липецк,  ул. Жуковского, 9 	52.539716999999996	39.576717599999995	Липецк,  ул. Жуковского, 9 , р-н Октябрьский	False	7.823264902295414
8000	50	2	2	9	True	Липецк,  Московская ул., 87 	52.60250195	39.521624984125964	Липецк,  Московская ул., 87 , р-н Советский	False	5.223559679905976
6000	46	1	5	17	True	Липецк,  ул. Коцаря, 10 	52.57838275	39.513871374519596	Липецк,  ул. Коцаря, 10 , р-н Октябрьский	False	6.632469881112101
6000	45	2	3	5	True	Липецк,  ул. Валентины Терешковой, 7/2 	52.61931595	39.57037835	Липецк,  ул. Валентины Терешковой, 7/2 , р-н Советский	False	2.207750188292233
10000	31	1	5	5	False	Липецк,  Студенческий городок, 25 	52.59731	39.55111492043381	Липецк,  Студенческий городок, 25 , р-н Октябрьский	True	3.4264821099441822
12000	53	2	5	9	True	Липецк,  ул. Циолковского, 27 	52.611151899999996	39.56273700969487	Липецк,  ул. Циолковского, 27 , р-н Советский	False	2.40484174168393
11000	32	1	3	5	True	Липецк,  15-й микрорайон, 18 	52.5960365	39.542935549999996	Липецк,  15-й микрорайон, 18 , р-н Октябрьский	False	3.9942339334480716
6000	32	1	4	9	True	Липецк,  ул. Вермишева, 23Б 	52.60249535	39.5306968	Липецк,  ул. Вермишева, 23Б , р-н Советский	False	4.615396892994688
15000	47	2	3	5	True	Липецк,  ул. Валентины Терешковой, 11/1 	52.617794599999996	39.569503753135116	Липецк,  ул. Валентины Терешковой, 11/1 , р-н Советский	False	2.17544687752103
6500	56	2	5	10	True	 Липецк, улица Шерстобитова, 20 	52.581031949999996	39.5064316579887	 Липецк, улица Шерстобитова, 20 , р-н Октябрьский	False	6.9341520439430555
8000	60	3	2	10	True	 Липецк, проспект Победы, 91А 	52.584511	39.546585969549156	 Липецк, проспект Победы, 91А , р-н Октябрьский	False	4.411714487405295
8000	30	1	2	9	True	Липецк,  Полиграфическая ул., 10 	52.599282599999995	39.52124842445055	Липецк,  Полиграфическая ул., 10 , р-н Советский	False	5.308831588782298
25000	44	1	1	10	False	Липецк,  Политехническая ул., 13 	52.608444250000005	39.506445790545996	Липецк,  Политехническая ул., 13 , р-н Советский	False	6.204224401690178
13000	52	2	8	10	True	Липецк,  ул. Водопьянова 	52.5949552	39.5397745	Липецк,  ул. Водопьянова , р-н Октябрьский	False	4.237403590968391
10000	37	1	9	10	True	 Липецк, улица Бунина, 10 	52.5823727	39.51934743967397	 Липецк, улица Бунина, 10 , р-н Октябрьский	False	6.0895378832602765
14000	50	2	5	9	True	 Липецк, Московская улица, 139 	52.59748235	39.51258825	 Липецк, Московская улица, 139 , р-н Советский	False	5.924390712307203
8000	44	2	1	5	True	 Липецк, проспект Мира, 3 	52.58784545	39.61714343498138	 Липецк, проспект Мира, 3 , р-н Левобережный	False	2.6684472282607996
8000	31	1	2	4	False	Липецк,  ул Гагарина, 37 	52.61657075	39.59564900212784	Липецк,  ул Гагарина, 37 , р-н Советский	False	0.8783829703686478
15000	65	2	2	17	False	Липецк,  ул. Ульяны Громовой, 5 	52.6019955	39.57063445	Липецк,  ул. Ульяны Громовой, 5 , р-н Октябрьский	False	2.0049088305666616
15000	60	3	1	5	True	 Липецк, улица Гагарина, 49 	52.61686375	39.5931219	 Липецк, улица Гагарина, 49 , р-н Советский	False	0.9557280122703661
8000	47	2	4	5	True	Липецк,  ул. Валентины Терешковой, 3/1 	52.621026650000005	39.569073353519414	Липецк,  ул. Валентины Терешковой, 3/1 , р-н Советский	False	2.3862560799768997
20000	115	3	10	10	False	Липецк,  ул. Петра Смородина, 11 	52.5904805	39.537926868363634	Липецк,  ул. Петра Смородина, 11 , р-н Октябрьский	True	4.554623642729375
18000	97	3	8	10	True	 Липецк, улица Мичурина, 22А 	52.5966717	39.57761930716633	 Липецк, улица Мичурина, 22А , р-н Октябрьский	False	1.9331260164962925
15000	35	1	6	10	True	 Липецк, Индустриальная улица, 3 	52.591034699999994	39.56459100187709	 Липецк, Индустриальная улица, 3 , р-н Октябрьский	False	3.007683051137609
50000	38	1	9	9	True	 Липецк, улица Меркулова, 47 	52.583724149999995	39.53381665891851	 Липецк, улица Меркулова, 47 , р-н Октябрьский	True	5.169698581074764
45000	40	1	16	19	True	 Липецк, улица Хренникова, 6А 	52.59490945	39.491037649727915	 Липецк, улица Хренникова, 6А , р-н Советский	False	7.4122262600206374
8000	65	3	9	9	True	 Липецк, Московская улица, 9 	52.61735505	39.545988449999996	 Липецк, Московская улица, 9 , р-н Советский	True	3.6509674232736993
8000	54	2	2	10	True	 Липецк, Студенческий городок, проезд Строителей, 14А 	52.59604046630435	39.55364041515763	 Липецк, Студенческий городок, проезд Строителей, 14А , р-н Октябрьский	False	3.3262857995316346
8000	36	1	1	10	True	 Липецк, улица Володи Бачурина, 5 	52.543168550000004	39.57507088910069	 Липецк, улица Володи Бачурина, 5 , р-н Октябрьский	False	7.468581754365913
12000	65	2	7	10	True	 Липецк, Коммунальная улица, 14 	52.5994676	39.588370057645804	 Липецк, Коммунальная улица, 14 , р-н Советский	False	1.2285395792837017
12000	42	1	16	17	True	 Липецк, улица Лутова, 8 	52.587995500000005	39.58317058400819	 Липецк, улица Лутова, 8 , р-н Октябрьский	False	2.525688270826048
11000	119.9	3	5	6	True	 Липецк, улица Желябова, 14А 	52.615225949999996	39.60054529042767	 Липецк, улица Желябова, 14А , р-н Правобережный	False	0.7338849828848965
20000	36	1	4	9	True	 Липецк, улица 4-й Пятилетки, 10 	52.619887899999995	39.61248881513369	 Липецк, улица 4-й Пятилетки, 10 , р-н Правобережный	False	1.5743448189597187
13000	106	3	4	5	True	 Липецк, улица Шевченко, 20 	52.61978605	39.60347815	 Липецк, улица Шевченко, 20 , р-н Правобережный	False	1.275816704382718
100000	65	3	10	14	True	 Липецк, проспект Победы, 93А 	52.583798099999996	39.54505751842687	 Липецк, проспект Победы, 93А , р-н Октябрьский	False	4.542195788616319
15000	65	2	3	10	True	 Липецк, улица Мичурина, 22А 	52.5966717	39.57761930716633	 Липецк, улица Мичурина, 22А , р-н Октябрьский	False	1.9331260164962925
100000	60	2	13	17	True	 Липецк, улица Лутова, 8 	52.587995500000005	39.58317058400819	 Липецк, улица Лутова, 8 , р-н Октябрьский	False	2.525688270826048
25000	54	2	11	12	True	 Липецк, улица Циолковского, 27 	52.611151899999996	39.56273700969487	 Липецк, улица Циолковского, 27 , р-н Советский	False	2.40484174168393
16000	100	3	9	16	True	 Липецк, улица Космонавтов, 3А 	52.61672455	39.580665518235364	 Липецк, улица Космонавтов, 3А , р-н Советский	False	1.4692530989624284
19000	60	2	12	14	True	 Липецк, улица Валентины Терешковой, 13Б 	52.6143922	39.57147007094444	 Липецк, улица Валентины Терешковой, 13Б , р-н Советский	False	1.9032215972428221
15000	120	3	9	9	True	 Липецк, улица Космонавтов, 92 	52.6098591	39.54800038595118	 Липецк, улица Космонавтов, 92 , р-н Советский	True	3.3910188863153885
50000	70	2	2	11	True	 Липецк, улица Стаханова, 47 	52.583304749999996	39.51817395021551	 Липецк, улица Стаханова, 47 , р-н Октябрьский	False	6.110367306322029
20000	40	1	9	15	True	Липецк,  пр-т Победы, 128 	52.59604046630435	39.55364041515763	Липецк,  пр-т Победы, 128 , р-н Октябрьский	False	3.3262857995316346
65000	63	3	5	5	True	Липецк,  ул. Космонавтов, 29/3 	52.61343105	39.558048299999996	Липецк,  ул. Космонавтов, 29/3 , р-н Советский	True	2.7566012260537094
20000	13	1	4	5	False	Липецк,  ул. Циолковского, 5/1 	52.617667850000004	39.550887843374056	Липецк,  ул. Циолковского, 5/1 , р-н Советский	False	3.3417621932506854
13000	42	1	3	17	False	Липецк,  ул. М.И. Неделина, 12 	52.59604046630435	39.55364041515763	Липецк,  ул. М.И. Неделина, 12 , р-н Советский	False	3.3262857995316346
7000	50	2	3	5	False	Липецк,  ул. Петра Смородина, 20 	52.58949595	39.53508610501777	Липецк,  ул. Петра Смородина, 20 , р-н Октябрьский	False	4.775845450260785
6000	50	2	9	10	True	Липецк,  ул. Доватора, 2А 	52.595811499999996	39.56286675377359	Липецк,  ул. Доватора, 2А , р-н Октябрьский	False	2.7871342984684597
20000	22	1	6	6	False	Липецк,  Октябрьский округ, 15-й микрорайон, 1/3 	52.5984568	39.54853096347954	Липецк,  Октябрьский округ, 15-й микрорайон, 1/3 , р-н Октябрьский	True	3.5459353006762786
7500	44	2	3	3	True	Липецк,  посёлок Матырский, Моршанская ул., 12 	52.59604046630435	39.55364041515763	Липецк,  посёлок Матырский, Моршанская ул., 12 , р-н Левобережный	True	3.3262857995316346
15000	59	2	2	14	True	Липецк,  ул.Проспект Победы 106 А 	52.5798193	39.5372192	Липецк,  ул.Проспект Победы 106 А , р-н Октябрьский	False	5.233444881590188
7000	40	1	3	9	False	Липецк,  ул. Плеханова, 3 	52.6110574	39.59346201923077	Липецк,  ул. Плеханова, 3 , р-н Советский	False	0.39771565039606627
8000	50	2	5	9	False	Липецк,  ул. Стаханова, 27 	52.5912094	39.52976887082623	Липецк,  ул. Стаханова, 27 , р-н Октябрьский	False	5.022694527465082
20000	56	2	4	9	False	Липецк,  Московская ул., 133 	52.597393350000004	39.51527416670994	Липецк,  Московская ул., 133 , р-н Советский	False	5.748901147469889
13000	65	3	9	9	False	Липецк,  ул им.Генерала Меркулова, 7 	52.59604046630435	39.55364041515763	Липецк,  ул им.Генерала Меркулова, 7 , р-н Октябрьский	True	3.3262857995316346
13000	80	3	8	9	True	Липецк,  ул. 50 лет НЛМК, 17А 	52.5874911	39.58076188384845	Липецк,  ул. 50 лет НЛМК, 17А , р-н Октябрьский	False	2.645291250094884
12000	48	2	5	5	True	Липецк,  Московская ул., 101 	52.6014633	39.51804675473883	Липецк,  Московская ул., 101 , р-н Советский	True	5.479986547143431
17000	45	1	6	17	True	Липецк,  ул. Осканова, 6 	52.59430475	39.488125450029564	Липецк,  ул. Осканова, 6 , р-н Советский	False	7.6193256737132184
7500	41	1	14	17	False	Липецк,  ул. Свиридова, 7 	52.57940775	39.50669823963892	Липецк,  ул. Свиридова, 7 , р-н Октябрьский	False	7.000716636385049
9000	46	2	8	12	True	Липецк,  ул. 8 Марта, 34 	52.60689	39.574748047856275	Липецк,  ул. 8 Марта, 34 , р-н Советский	False	1.5915621532617783
9000	18	1	1	5	False	Липецк,  ул. Космонавтов, 70/1 	52.61277625	39.549769304277135	Липецк,  ул. Космонавтов, 70/1 , р-н Советский	False	3.298715921751483
11000	35	1	9	9	False	Липецк,  ул. Ушинского 	52.6452857	39.6527353	Липецк,  ул. Ушинского , р-н Правобережный	True	5.495164182539202
10000	40	1	1	9	True	Липецк,  ул. Ильича, 36А 	52.53692755	39.58655691409719	Липецк,  ул. Ильича, 36А , р-н Октябрьский	False	8.036818913655916
8000	40	1	9	10	True	Липецк,  ул. М.И. Неделина, 61 	52.59604046630435	39.55364041515763	Липецк,  ул. М.И. Неделина, 61 , р-н Октябрьский	False	3.3262857995316346
9000	40	1	5	10	False	Липецк,  улица Котовского, 37 	52.59535665	39.582237213726415	Липецк,  улица Котовского, 37 , р-н Октябрьский	False	1.840220506469614
6000	31	1	4	4	False	Липецк,  ул. Ушинского, 6Б 	52.6430638	39.653126	Липецк,  ул. Ушинского, 6Б , р-н Правобережный	True	5.333691107265912
10000	32	1	2	9	False	Липецк,  Первомайская ул., 65 	52.6027554	39.58574252965604	Липецк,  Первомайская ул., 65 , р-н Советский	False	1.0709649950814963
10000	25	1	4	5	False	Липецк,  ул. Вермишева, 18/1 	52.6047369	39.5370992	Липецк,  ул. Вермишева, 18/1 , р-н Советский	False	4.152544803722464
9000	45	1	13	16	True	 Липецк, проспект Победы, 128 	52.5811009	39.5363679	 Липецк, проспект Победы, 128 , р-н Октябрьский	False	5.193008677652967
9000	31	1	5	5	False	Липецк,  ул. Игнатьева, 32 	52.6128819	39.5869598	Липецк,  ул. Игнатьева, 32 , р-н Советский	True	0.876015693399673
6000	41	1	3	10	False	Липецк,  ул. Шерстобитова, 20 	52.581031949999996	39.5064316579887	Липецк,  ул. Шерстобитова, 20 , р-н Октябрьский	False	6.9341520439430555
7000	18	1	5	5	True	Липецк,  ул. Валентины Терешковой, 28/5 	52.61383375	39.565398615625	Липецк,  ул. Валентины Терешковой, 28/5 , р-н Советский	True	2.2798937783264166
7000	40	1	14	17	True	Липецк,  ул. Свиридова, 12 	52.5798288	39.5045115	Липецк,  ул. Свиридова, 12 , р-н Октябрьский	False	7.11065628564944
9000	60	3	2	5	True	Липецк,  Московская ул., 61Д 	52.609783	39.530117	Липецк,  Московская ул., 61Д , р-н Советский	False	4.601738136831472
7000	48	2	9	9	True	Липецк,  ул. Филипченко, 7/4 	52.6043597	39.5462539	Липецк,  ул. Филипченко, 7/4 , р-н Советский	True	3.5423508822490035
6000	62	3	3	5	True	Липецк,  Советский район, 9-й микрорайон, 20А 	52.59604046630435	39.55364041515763	Липецк,  Советский район, 9-й микрорайон, 20А , р-н Советский	False	3.3262857995316346
10000	46	1	11	17	True	Липецк,  ул. Бехтеева, 4 	52.6041723	39.509391563583684	Липецк,  ул. Бехтеева, 4 , р-н Советский	False	6.026975843566714
8000	33	1	4	9	False	Липецк,  ул. 8 Марта, 26/4 	52.6087876	39.5773480733047	Липецк,  ул. 8 Марта, 26/4 , р-н Советский	False	1.4009727735628117
12000	38	1	5	9	True	 Липецк, улица Мистюкова, 4 	52.581308	39.5022308	 Липецк, улица Мистюкова, 4 , р-н Октябрьский	False	7.176914469176777
8000	56	2	2	9	True	 Липецк, бульвар Есенина, 9 	52.58637045	39.524228699999995	 Липецк, бульвар Есенина, 9 , р-н Октябрьский	False	5.589524758639672
12000	39	1	7	10	False	Липецк,  ул. Сергея Казьмина, 6 	52.59604046630435	39.55364041515763	Липецк,  ул. Сергея Казьмина, 6 , р-н Правобережный	False	3.3262857995316346
8000	33	1	6	10	False	Липецк,  ул. Мичурина, 2 	52.59750315	39.58346366539672	Липецк,  ул. Мичурина, 2 , р-н Октябрьский	False	1.5991436007507362
10000	52	2	1	10	True	Липецк,  Октябрьский округ, 15-й микрорайон, 35Б 	52.59855215	39.54129419709099	Липецк,  Октябрьский округ, 15-й микрорайон, 35Б , р-н Октябрьский	False	4.00974858136213
10000	36	1	9	9	True	Липецк,  Октябрьский округ, 15-й микрорайон, 37 	52.5956433	39.54376125096255	Липецк,  Октябрьский округ, 15-й микрорайон, 37 , р-н Октябрьский	True	3.9580086103845074
9000	35	1	2	5	False	Липецк,  посёлок Матырский, ул. Энергостроителей, 20 	52.59604046630435	39.55364041515763	Липецк,  посёлок Матырский, ул. Энергостроителей, 20 , р-н Левобережный	False	3.3262857995316346
10000	43	2	1	5	False	 Липецк, улица Валентины Терешковой, 3/2 	52.62106785	39.56979077897253	 Липецк, улица Валентины Терешковой, 3/2 , р-н Советский	False	2.3491389427858045
10000	20	1	5	5	True	Липецк,  Левобережная ул., 1 	52.5891205	39.61465145029151	Липецк,  Левобережная ул., 1 , р-н Левобережный	True	2.463691145372761
9000	50	1	10	14	False	Липецк,  ул. Зегеля, 21А 	52.61395465	39.596789150000006	Липецк,  ул. Зегеля, 21А , р-н Советский	False	0.5784747078233422
10000	42	2	4	5	False	Липецк,  ул. Космонавтов, 17 	52.6154432	39.56128112468201	Липецк,  ул. Космонавтов, 17 , р-н Советский	False	2.596291397640845
8000	36	1	7	10	False	Липецк,  ул. Яна Фабрициуса, 1 	52.6072426	39.53652421251833	Липецк,  ул. Яна Фабрициуса, 1 , р-н Советский	False	4.1702078491224075
35000	33	1	5	10	False	Липецк,  ул. Теперика, 7 	52.58063625	39.523388921917956	Липецк,  ул. Теперика, 7 , р-н Октябрьский	False	5.950841127196291
11000	50	2	6	14	True	Липецк,  ул. Стаханова, 19 	52.5732638	39.5127594	Липецк,  ул. Стаханова, 19 , р-н Октябрьский	False	7.0029110012710385
8500	33	1	1	12	True	Липецк,  ул. Валентины Терешковой, 24 	52.613844549999996	39.56943255	Липецк,  ул. Валентины Терешковой, 24 , р-н Советский	False	2.0164247528647894
10000	15	1	1	10	False	Липецк,  ул.Индустриальная 6 	52.58954	39.5580433	Липецк,  ул.Индустриальная 6 , р-н Октябрьский	False	3.455317063604611
10000	51	2	7	9	True	Липецк,  ул. Катукова, 38 	52.58967155	39.516273482710574	Липецк,  ул. Катукова, 38 , р-н Октябрьский	False	5.934856364433318
7000	50	2	8	9	False	Липецк,  Полиграфическая ул., 12 	52.59876055	39.52080562445066	Липецк,  Полиграфическая ул., 12 , р-н Советский	False	5.3501025871443515
6000	50	2	8	9	False	Липецк,  Полиграфическая ул., 12 	52.59876055	39.52080562445066	Липецк,  Полиграфическая ул., 12 , р-н Советский	False	5.3501025871443515
7000	36	1	9	10	True	Липецк,  ул. Мистюкова, 4 	52.581308	39.5022308	Липецк,  ул. Мистюкова, 4 , р-н Октябрьский	False	7.176914469176777
14000	61	3	4	9	False	Липецк,  ул. Качалова, 5 	52.6225972	39.5801214	Липецк,  ул. Качалова, 5 , р-н Правобережный	False	1.9556457797818
14000	64	3	1	9	True	Липецк,  Студенческий городок, пр. Строителей 	52.59604046630435	39.55364041515763	Липецк,  Студенческий городок, пр. Строителей , р-н Октябрьский	False	3.3262857995316346
7500	33	1	5	5	False	Липецк,  ул. Космонавтов, 13 	52.6155002	39.562652275348725	Липецк,  ул. Космонавтов, 13 , р-н Советский	True	2.509256173415733
25000	44	1	15	17	False	Липецк,  15-й микрорайон, 39 	52.59880475	39.535832	Липецк,  15-й микрорайон, 39 , р-н Октябрьский	False	4.358492418509198
25000	112	4	4	4	True	Липецк,  ул. Шевченко, 24 	52.6199746	39.602721700000004	Липецк,  ул. Шевченко, 24 , р-н Правобережный	True	1.2822628759292374
8000	42	1	7	14	True	Липецк,  Нижняя Логовая ул., 6 	52.6115159	39.592446	Липецк,  Нижняя Логовая ул., 6 , р-н Советский	False	0.483327871592365
16000	40	1	12	20	True	Липецк,  ул. Меркулова, 10А 	52.590523000000005	39.54233195	Липецк,  ул. Меркулова, 10А , р-н Октябрьский	False	4.287592156342846
60000	37	1	3	10	True	Липецк,  ул. Шерстобитова 	52.5806571	39.508408	Липецк,  ул. Шерстобитова , р-н Октябрьский	False	6.83357945120357
28000	40	1	4	11	True	 Липецк, улица Шерстобитова, 10 	52.581204299999996	39.508449501197845	 Липецк, улица Шерстобитова, 10 , р-н Октябрьский	False	6.803334832762058
10000	31	1	4	5	False	Липецк,  ул Советская, д.47 	52.59604046630435	39.55364041515763	Липецк,  ул Советская, д.47 , р-н Советский	False	3.3262857995316346
9000	60	3	5	9	False	Липецк,  ул. Шевченко, 1 	52.61915605	39.60553875	Липецк,  ул. Шевченко, 1 , р-н Правобережный	False	1.258532846874883
10000	56	2	3	4	True	Липецк,  пр-т Мира 	52.592637	39.6135342	Липецк,  пр-т Мира , р-н Левобережный	False	2.084024438375243
11000	18	1	4	5	False	Липецк,  ул. Космонавтов, 22 	52.61767185	39.57274778404941	Липецк,  ул. Космонавтов, 22 , р-н Советский	False	1.9760073830616338
18000	35	1	10	10	False	Липецк,  ул. Качалова, 1 	52.62322045	39.5787248341329	Липецк,  ул. Качалова, 1 , р-н Правобережный	True	2.068946111350175
8000	48	2	7	12	True	Липецк,  ул. Зои Космодемьянской 	52.5903124	39.6162181	Липецк,  ул. Зои Космодемьянской , р-н Левобережный	False	2.399264740211826
8500	70	4	4	5	False	Липецк,  ул. Филипченко, 13 	52.6038012	39.54846924383057	Липецк,  ул. Филипченко, 13 , р-н Советский	False	3.4034579845467965
9000	43	1	12	17	True	Липецк,  Боевой пр. 	52.6313597	39.5506856	Липецк,  Боевой пр. , р-н Правобережный	False	4.0714184109229095
10000	52	2	5	9	True	Липецк,  Индустриальная ул., 23 	52.5895421	39.56175310320786	Липецк,  Индустриальная ул., 23 , р-н Октябрьский	False	3.261799583034886
11000	51.4	2	2	10	False	Липецк,  Студенческий городок, пр. Строителей, 14 	52.59604046630435	39.55364041515763	Липецк,  Студенческий городок, пр. Строителей, 14 , р-н Октябрьский	False	3.3262857995316346
12000	43	1	19	19	True	Липецк,  ул. Хренникова, 6А 	52.59604046630435	39.55364041515763	Липецк,  ул. Хренникова, 6А , р-н Советский	True	3.3262857995316346
8000	46	2	4	4	True	Липецк,  пл. Мира Зои Космодемьянской 3 	52.59604046630435	39.55364041515763	Липецк,  пл. Мира Зои Космодемьянской 3 , р-н Левобережный	True	3.3262857995316346
11500	42	1	1	5	False	Липецк,  Опытная ул., 19 	52.6311906	39.5414598	Липецк,  Опытная ул., 19 , р-н Правобережный	False	4.5694162177715105
9000	60	2	6	10	False	Липецк,  Депутатская ул., 53 	52.591133850000006	39.57020314225549	Липецк,  Депутатская ул., 53 , р-н Октябрьский	False	2.7247341882587035
9500	36	1	6	9	False	Липецк,  посёлок Сырский, ул. Ударников, 12А 	52.59604046630435	39.55364041515763	Липецк,  посёлок Сырский, ул. Ударников, 12А , р-н Советский	False	3.3262857995316346
11000	42	1	11	14	False	Липецк,  ул. Белана, 18 	52.5862385	39.5074866	Липецк,  ул. Белана, 18 , р-н Октябрьский	False	6.62943143834611
12000	44	1	7	14	False	Липецк,  ул. Теперика, 1 	52.5829861	39.5227812845888	Липецк,  ул. Теперика, 1 , р-н Октябрьский	False	5.853037445214318
13000	30	1	3	5	True	Липецк,  ул. Ленина, 5 	52.61089825	39.60255752027357	Липецк,  ул. Ленина, 5 , р-н Правобережный	False	0.3847620130162875
22000	52	2	6	9	True	Липецк,  ул. Валентины Терешковой, 19 	52.61464705	39.57408902318139	Липецк,  ул. Валентины Терешковой, 19 , р-н Советский	False	1.7468330291473704
22000	52	2	4	10	True	Липецк,  бульвар Шубина, 11 	52.5924044	39.516998	Липецк,  бульвар Шубина, 11 , р-н Октябрьский	False	5.785866131342058
10000	40	1	5	5	False	Липецк,  ул. Леваневского, 1 	52.58509075	39.61559695	Липецк,  ул. Леваневского, 1 , р-н Левобережный	True	2.895608980152031
12000	45	1	6	10	False	Липецк,  ул. М.И. Неделина, 15В 	52.59604046630435	39.55364041515763	Липецк,  ул. М.И. Неделина, 15В , р-н Октябрьский	False	3.3262857995316346
12000	25	1	1	5	False	Липецк,  Юношеская ул., 23А 	52.58225965	39.46914568458386	Липецк,  Юношеская ул., 23А , р-н Советский	False	9.219757587638693
15000	37	1	6	10	False	Липецк,  ул. 50 лет НЛМК, 23 	52.58688815	39.58271521312675	Липецк,  ул. 50 лет НЛМК, 23 , р-н Октябрьский	False	2.6510857239199175
8000	31	1	3	5	False	Липецк,  ул. Гагарина 	52.623450500000004	39.56809757905714	Липецк,  ул. Гагарина , р-н Правобережный	False	2.6006988135076465
16000	38	1	2	10	True	Липецк,  ул. Теперика 	52.5812583	39.5224387	Липецк,  ул. Теперика , р-н Октябрьский	False	5.969789979043151
8000	56	3	2	5	True	Липецк,  ул. Гагарина, 63А 	52.61886535	39.58090444434484	Липецк,  ул. Гагарина, 63А , р-н Советский	False	1.6115636326800897
10000	38	1	5	10	False	Липецк,  ул. Мистюкова, 4 	52.581308	39.5022308	Липецк,  ул. Мистюкова, 4 , р-н Октябрьский	False	7.176914469176777
10000	37.7	1	3	9	False	Липецк,  ул. Водопьянова, 11 	52.5892458	39.548367905729165	Липецк,  ул. Водопьянова, 11 , р-н Октябрьский	False	4.007854941875176
7000	48	2	4	9	True	Липецк,  ул. Космонавтов, 10 	52.6175219	39.579214858239396	Липецк,  ул. Космонавтов, 10 , р-н Советский	False	1.6011267992223424
10000	63	3	3	10	True	Липецк,  ул. М.И. Неделина, 15 	52.59604046630435	39.55364041515763	Липецк,  ул. М.И. Неделина, 15 , р-н Октябрьский	False	3.3262857995316346
8000	44	2	5	5	True	Липецк,  ул. Тельмана, 2 	52.61858144999999	39.60111125157995	Липецк,  ул. Тельмана, 2 , р-н Правобережный	True	1.107077668766046
6500	32	1	5	9	False	Липецк,  пл. Мира, 2 	52.5911193	39.61607765818508	Липецк,  пл. Мира, 2 , р-н Левобережный	False	2.31764255333756
9000	45	2	3	5	True	Липецк,  ул. Циолковского, 3/5 	52.6190469	39.552803924596276	Липецк,  ул. Циолковского, 3/5 , р-н Советский	False	3.2681959100728863
12000	66	2	3	5	False	Липецк,  ул. Стаханова, 40 	52.58404955	39.51632078012808	Липецк,  ул. Стаханова, 40 , р-н Октябрьский	False	6.184434406691999
9000	35	1	8	10	False	Липецк,  Октябрьский округ, Студенческий городок, 16А 	52.59500705	39.5508981	Липецк,  Октябрьский округ, Студенческий городок, 16А , р-н Октябрьский	False	3.543523611192772
7000	36	1	2	10	True	Липецк,  пр-т имени 60-летия СССР, 45 	52.59604046630435	39.55364041515763	Липецк,  пр-т имени 60-летия СССР, 45 , р-н Октябрьский	False	3.3262857995316346
8000	40	1	4	17	True	 Липецк, улица Балмочных, 14 	52.618391849999995	39.587083699999994	 Липецк, улица Балмочных, 14 , р-н Правобережный	False	1.2985506526368844
22000	32	1	4	5	True	 Липецк, улица Гоголя, 2 	52.60259605	39.57129426825645	 Липецк, улица Гоголя, 2 , р-н Октябрьский	False	1.9387581850353564
11000	15	1	5	9	False	Липецк,  ул. М.И. Неделина, 55 	52.59604046630435	39.55364041515763	Липецк,  ул. М.И. Неделина, 55 , р-н Октябрьский	False	3.3262857995316346
8000	32	1	4	5	False	Липецк,  ул. Степанищева, 17 	52.6306871	39.5671451	Липецк,  ул. Степанищева, 17 , р-н Правобережный	False	3.2094854606719236
17000	85	3	2	6	True	Липецк,  ул. Фрунзе, 32 	52.5992153	39.59133928826531	Липецк,  ул. Фрунзе, 32 , р-н Советский	False	1.1600312028293458
7000	42	1	17	17	False	 Липецк, улица Свиридова, 13 	52.57655895	39.51675445243961	 Липецк, улица Свиридова, 13 , р-н Октябрьский	True	6.573904633655621
12000	40	1	7	14	True	Липецк,  ул. Свиридова, 7 	52.57940775	39.50669823963892	Липецк,  ул. Свиридова, 7 , р-н Октябрьский	False	7.000716636385049
8000	45	2	3	5	True	Липецк,  Звёздная ул., 2/1 	52.60736005	39.551134000000005	Липецк,  Звёздная ул., 2/1 , р-н Советский	False	3.180930079148975
20000	49.9	2	8	10	True	 Липецк, улица Леонтия Кривенкова, 15 	52.587227049999996	39.51126322826475	 Липецк, улица Леонтия Кривенкова, 15 , р-н Октябрьский	False	6.350868447168194
12000	38	1	6	12	True	Липецк,  ул. Ворошилова, 3 	52.603281749999994	39.588665000000006	Липецк,  ул. Ворошилова, 3 , р-н Советский	False	0.8837707691206589
7000	30	1	1	5	False	Липецк,  Октябрьский округ, Студенческий городок, 25 	52.59604046630435	39.55364041515763	Липецк,  Октябрьский округ, Студенческий городок, 25 , р-н Октябрьский	False	3.3262857995316346
7000	50	2	6	10	True	Липецк,  Депутатская ул., 53 	52.591133850000006	39.57020314225549	Липецк,  Депутатская ул., 53 , р-н Октябрьский	False	2.7247341882587035
15000	47	1	17	19	False	Липецк,  ул. Хренникова, 1 	52.59590325	39.49572775	Липецк,  ул. Хренникова, 1 , р-н Советский	False	7.078421200131009
15000	42	1	15	17	True	Липецк,  ул Бехтеева С.С. 	52.6054141	39.507691	Липецк,  ул Бехтеева С.С. , р-н Советский	False	6.13161203431909
10000	39	1	2	10	False	Липецк,  б-р Шубина, 13 	52.59604046630435	39.55364041515763	Липецк,  б-р Шубина, 13 , р-н Октябрьский	False	3.3262857995316346
12000	41	1	2	17	False	Липецк,  ул. 50 лет НЛМК, 2Д 	52.59329965	39.59475115	Липецк,  ул. 50 лет НЛМК, 2Д , р-н Октябрьский	False	1.7403448154094219
15000	40	1	6	13	False	Липецк,  ул. Белянского, 16 	52.59604046630435	39.55364041515763	Липецк,  ул. Белянского, 16 , р-н Советский	False	3.3262857995316346
16000	54	2	6	10	False	Липецк,  ул Юных Натуралистов д. 3 	52.5974597	39.5672428	Липецк,  ул Юных Натуралистов д. 3 , р-н Октябрьский	False	2.438482618074882
10000	36	1	2	10	True	Липецк,  ул. Шуминского, 15 	52.5866612	39.513818900000004	Липецк,  ул. Шуминского, 15 , р-н Октябрьский	False	6.2156406761127005
19000	19	1	3	5	True	Липецк,  ул. Циолковского, 7/2 	52.6171026	39.552273507635036	Липецк,  ул. Циолковского, 7/2 , р-н Советский	False	3.2337091368966573
9000	43	2	3	5	False	Липецк,  ул. Космонавтов, 11 	52.6155421	39.563312703681916	Липецк,  ул. Космонавтов, 11 , р-н Советский	False	2.4679797157335184
14000	41.2	1	4	13	True	Липецк,  ул. Замятина д.1 	52.6055486	39.5030432	Липецк,  ул. Замятина д.1 , р-н Советский	False	6.4450374540972675
8000	46	2	2	2	True	 Липецк, Интернациональная улица 	52.6136073	39.6044701	 Липецк, Интернациональная улица , р-н Правобережный	True	0.6893498267805627
7000	52	2	3	5	True	Липецк,  ул. Катукова, 6 	52.581365000000005	39.533661949999995	Липецк,  ул. Катукова, 6 , р-н Октябрьский	False	5.324735746908987
10000	32	1	3	5	False	Липецк,  Интернациональная ул., 69 	52.6173327	39.6106879	Липецк,  Интернациональная ул., 69 , р-н Правобережный	False	1.2784503160571385
9000	56	3	5	5	True	 Липецк, Московская улица, 41 	52.6136293	39.53925674999999	 Липецк, Московская улица, 41 , р-н Советский	True	4.0170899014175285
10000	64	3	6	12	False	Липецк,  ул. Валентины Терешковой, 20 	52.615819	39.5686076	Липецк,  ул. Валентины Терешковой, 20 , р-н Советский	False	2.1400469229140286
9000	44	2	4	5	False	Липецк,  ул. Космонавтов, 17 	52.6154432	39.56128112468201	Липецк,  ул. Космонавтов, 17 , р-н Советский	False	2.596291397640845
8000	60	2	3	19	False	Липецк,  ул. Артёмова, 3 	52.596468599999994	39.48643382486868	Липецк,  ул. Артёмова, 3 , р-н Советский	False	7.684525483876821
10000	40	1	3	10	False	Липецк,  ул. Замятина, 4Б 	52.6055486	39.5030432	Липецк,  ул. Замятина, 4Б , р-н Советский	False	6.4450374540972675
13000	70	2	10	10	False	Липецк,  ул.Шубина 	52.5924044	39.516998	Липецк,  ул.Шубина , р-н Советский	True	5.785866131342058
10000	52	2	6	10	True	Липецк,  ул. Катукова 	52.5930564	39.5073129	Липецк,  ул. Катукова , р-н Октябрьский	False	6.391573911121178
13000	50	1	9	12	False	Липецк,  ул. Шерстобитова, 22 	52.58069985	39.505586199999996	Липецк,  ул. Шерстобитова, 22 , р-н Октябрьский	False	7.001935557523135
9000	39	1	13	21	False	Липецк,  ул. Яна Берзина, 2 	52.603521799999996	39.53756445847865	Липецк,  ул. Яна Берзина, 2 , р-н Советский	False	4.138330064642232
25000	35	1	8	9	False	Липецк,  ул. Меркулова, 47 	52.583724149999995	39.53381665891851	Липецк,  ул. Меркулова, 47 , р-н Октябрьский	False	5.169698581074764
10000	56	2	1	5	False	Липецк,  ул Центральная д.15 	52.59604046630435	39.55364041515763	Липецк,  ул Центральная д.15 , р-н Левобережный	False	3.3262857995316346
10000	30	1	3	5	False	Липецк,  ул. Филипченко, 11 	52.604294949999996	39.54839654999999	Липецк,  ул. Филипченко, 11 , р-н Советский	False	3.3997422284705796
10000	63	3	6	9	False	Липецк,  Звёздная ул., 13/2 	52.60030855	39.53910199931079	Липецк,  Звёздная ул., 13/2 , р-н Советский	False	4.10283104823886
10000	13	1	5	5	False	Липецк,  ул. Жуковского, 7 	52.540252	39.577631249999996	Липецк,  ул. Жуковского, 7 , р-н Октябрьский	True	7.753474939606834
10000	51	2	8	10	False	Липецк,  ул. Доватора, 4к1 	52.597854	39.5577943	Липецк,  ул. Доватора, 4к1 , р-н Октябрьский	False	2.986206042393225
8000	57	2	6	10	False	Липецк,  ул. Белана, 3 	52.5862385	39.5074866	Липецк,  ул. Белана, 3 , р-н Октябрьский	False	6.62943143834611
10000	41	1	4	17	True	 Липецк, улица Свиридова, 4 	52.5801486	39.50281801907175	 Липецк, улица Свиридова, 4 , р-н Октябрьский	False	7.197257276246688
5000	44	2	1	5	True	Липецк,  ул. Гагарина, 121к1 	52.59604046630435	39.55364041515763	Липецк,  ул. Гагарина, 121к1 , р-н Советский	False	3.3262857995316346
10000	52	2	9	9	False	Липецк,  Полиграфическая ул., 4 	52.6004584	39.521653958552776	Липецк,  Полиграфическая ул., 4 , р-н Советский	True	5.257141424407171
14000	33	1	8	10	False	Липецк,  Агрономическая ул., 17 	52.63139605	39.5441804	Липецк,  Агрономическая ул., 17 , р-н Правобережный	False	4.428999996767237
8000	63	3	2	2	False	Липецк,  ул. Полины Осипенко 	52.59604046630435	39.55364041515763	Липецк,  ул. Полины Осипенко , р-н Левобережный	True	3.3262857995316346
8500	35	1	4	10	True	Липецк,  ул. Хорошавина, 11А 	52.5842308	39.5148022	Липецк,  ул. Хорошавина, 11А , р-н Октябрьский	False	6.267886698194804
9999	32	1	4	4	True	Липецк,  ул. Зои Космодемьянской, 2 	52.5894487	39.61815765	Липецк,  ул. Зои Космодемьянской, 2 , р-н Левобережный	True	2.5500276569847387
8000	36	1	2	9	True	Липецк,  15-й микрорайон 	52.5956433	39.54376125096255	Липецк,  15-й микрорайон , р-н Октябрьский	False	3.9580086103845074
17000	37	1	3	9	True	Липецк,  ул. Вилена Огнева, 2 	52.54052865	39.573896722178645	Липецк,  ул. Вилена Огнева, 2 , р-н Октябрьский	False	7.772510344972676
7000	42	1	10	10	True	Липецк,  ул. Хорошавина, 15 	52.5849027	39.51140652188181	Липецк,  ул. Хорошавина, 15 , р-н Октябрьский	True	6.444429089676904
8000	31	1	1	5	False	Липецк,  Липовская ул., 6/3 	52.6129783	39.59087005	Липецк,  Липовская ул., 6/3 , р-н Советский	False	0.670953822891125
7000	41	1	13	19	False	Липецк,  ул. Свиридова, 20к1 	52.5798288	39.5045115	Липецк,  ул. Свиридова, 20к1 , р-н Октябрьский	False	7.11065628564944
6000	18	1	5	5	True	 Липецк, улица Вермишева 	52.6046755	39.536766	 Липецк, улица Вермишева , р-н Советский	True	4.175733815041026
7000	38	1	2	14	True	Липецк,  ул. Белана, 18 	52.5862385	39.5074866	Липецк,  ул. Белана, 18 , р-н Октябрьский	False	6.62943143834611
7500	42	2	1	5	False	Липецк,  ул. Циолковского 	52.610374	39.561924	Липецк,  ул. Циолковского , р-н Советский	False	2.451965098823031
15000	42	2	4	5	True	Липецк,  ул. М.И. Неделина, 35 	52.59604046630435	39.55364041515763	Липецк,  ул. М.И. Неделина, 35 , р-н Октябрьский	False	3.3262857995316346
8000	42	2	1	5	True	Липецк,  ул. Гагарина, 159 	52.6200085	39.55114914999999	Липецк,  ул. Гагарина, 159 , р-н Советский	False	3.4110642314298825
10000	33	1	4	9	True	Липецк,  ул. Доватора, 10Б 	52.60029915	39.556718132263725	Липецк,  ул. Доватора, 10Б , р-н Октябрьский	False	2.954709644478605
9000	56	2	11	14	True	Липецк,  ул. Яна Берзина, 9 	52.600416749999994	39.53815279672683	Липецк,  ул. Яна Берзина, 9 , р-н Советский	False	4.162708252636993
13000	55	2	5	10	True	Липецк,  пр-т Победы, 5А 	52.59604046630435	39.55364041515763	Липецк,  пр-т Победы, 5А , р-н Октябрьский	False	3.3262857995316346
16000	40	1	9	13	False	Липецк,  ул. Гагарина, 87А 	52.621853400000006	39.572847132400284	Липецк,  ул. Гагарина, 87А , р-н Советский	False	2.23952014210561
10000	36	1	3	9	False	Липецк,  ул. Филипченко, 8/2 	52.60248535	39.54407912300552	Липецк,  ул. Филипченко, 8/2 , р-н Советский	False	3.72212601108472
25000	32	1	2	5	False	Липецк,  посёлок Матырский, ул. Энергостроителей, 1 	52.59604046630435	39.55364041515763	Липецк,  посёлок Матырский, ул. Энергостроителей, 1 , р-н Левобережный	False	3.3262857995316346
20000	65	3	1	10	False	Липецк,  ул. Шуминского, 7 	52.58584775	39.51475953245274	Липецк,  ул. Шуминского, 7 , р-н Октябрьский	False	6.194021084350243
30000	63	3	8	9	True	 Липецк, Советская улица, 27 	52.60397895	39.58754708515761	 Липецк, Советская улица, 27 , р-н Советский	False	0.8907349009379371
5000	18	1	2	5	True	 Липецк, Левобережная улица, 3 	52.587549949999996	39.61343535	 Липецк, Левобережная улица, 3 , р-н Левобережный	False	2.5860056484296923
10000	38	1	6	11	False	Липецк,  ул. Леонтия Кривенкова, 11 	52.5874809	39.51016735	Липецк,  ул. Леонтия Кривенкова, 11 , р-н Октябрьский	False	6.4091390985446495
15000	23	1	1	5	True	Липецк,  ул. Валентины Терешковой, 28/5 	52.61383375	39.565398615625	Липецк,  ул. Валентины Терешковой, 28/5 , р-н Советский	False	2.2798937783264166
11000	43	2	3	10	True	 Липецк, Октябрьский округ, Студенческий городок, проезд Строителей, 16 	52.59604046630435	39.55364041515763	 Липецк, Октябрьский округ, Студенческий городок, проезд Строителей, 16 , р-н Октябрьский	False	3.3262857995316346
8000	30	1	3	5	True	Липецк,  ул. Папина, 31 	52.5912859	39.550162627519136	Липецк,  ул. Папина, 31 , р-н Октябрьский	False	3.784416658667337
9000	30	1	2	5	False	Липецк,  ул. Вермишева, 11 	52.6047369	39.5370992	Липецк,  ул. Вермишева, 11 , р-н Советский	False	4.152544803722464
6000	30	1	3	9	True	 Липецкая Область,городской округ Липецк,Липецк,Индустриальная улица,23 	52.5895421	39.56175310320786	 Липецкая Область,городской округ Липецк,Липецк,Индустриальная улица,23 , р-н Октябрьский	False	3.261799583034886
12000	35	1	8	9	False	Липецк,  ул. Жуковского, 15А 	52.5373429	39.574115067481976	Липецк,  ул. Жуковского, 15А , р-н Октябрьский	False	8.11645536616093
8000	53	2	5	9	True	Липецк,  ул. Звездная д. 11 	52.59604046630435	39.55364041515763	Липецк,  ул. Звездная д. 11 , р-н Советский	False	3.3262857995316346
7000	64	3	6	9	True	Липецк,  ул. Катукова, 32 	52.58885995	39.51683942122503	Липецк,  ул. Катукова, 32 , р-н Октябрьский	False	5.932332868981662
9000	31	1	4	5	False	Липецк,  Коммунистическая ул., 21 	52.53994165	39.58267794999999	Липецк,  Коммунистическая ул., 21 , р-н Октябрьский	False	7.734035648655475
8000	24	1	3	5	True	Липецк,  ул. Циолковского, 4/3 	52.616219650000005	39.54732978217303	Липецк,  ул. Циолковского, 4/3 , р-н Советский	False	3.531756515803689
9000	40	1	3	9	True	Липецк,  ул. Хорошавина, 15 	52.5849027	39.51140652188181	Липецк,  ул. Хорошавина, 15 , р-н Октябрьский	False	6.444429089676904
11000	53	2	5	9	True	Липецк,  пр-т Победы 	52.5895052	39.5554733	Липецк,  пр-т Победы , р-н Октябрьский	False	3.595796284907867
7500	86	3	13	15	True	Липецк,  Политехническая ул., 1 	52.604830199999995	39.50952189776811	Липецк,  Политехническая ул., 1 , р-н Советский	False	6.012296605446986
5000	64	3	6	9	True	Липецк,  ул. Стаханова, 49 	52.5822416	39.517338972981804	Липецк,  ул. Стаханова, 49 , р-н Октябрьский	False	6.215980550713039
7000	22	1	4	5	True	Липецк,  ул. Циолковского, 5/2 	52.6103601	39.5681867	Липецк,  ул. Циолковского, 5/2 , р-н Советский	False	2.0288817043532172
10000	52	2	5	10	False	Липецк,  ул. Теперика, 3 	52.581696550000004	39.52271835215187	Липецк,  ул. Теперика, 3 , р-н Октябрьский	False	5.928548182667016
35000	17	1	4	5	True	Липецк,  ул. Вермишева 	52.6046755	39.536766	Липецк,  ул. Вермишева , р-н Советский	False	4.175733815041026
20000	35	1	8	10	True	Липецк,  Агрономическая ул. 	52.631934	39.5465576	Липецк,  Агрономическая ул. , р-н Правобережный	False	4.332669080165959
5000	45	1	6	10	True	Липецк,  Советская ул., 28 	52.60468805	39.58396189093597	Липецк,  Советская ул., 28 , р-н Советский	False	1.0576830126443824
15000	28	1	7	9	True	 Липецк, улица Космонавтов, 51 	52.6025966	39.53874702494733	 Липецк, улица Космонавтов, 51 , р-н Советский	False	4.075290564589258
6000	36	1	8	10	True	Липецк,  пр-т имени 60-летия СССР, 45 	52.59604046630435	39.55364041515763	Липецк,  пр-т имени 60-летия СССР, 45 , р-н Октябрьский	False	3.3262857995316346
5500	40	1	4	9	False	Липецк,  ул. Циолковского, 13 	52.61158715	39.5577173201121	Липецк,  ул. Циолковского, 13 , р-н Советский	False	2.748134094964669
20000	50	1	2	5	True	 Липецк, Студенческий городок, проезд Строителей, 10 	52.59604046630435	39.55364041515763	 Липецк, Студенческий городок, проезд Строителей, 10 , р-н Октябрьский	False	3.3262857995316346
8500	38	1	4	10	True	 Липецк, улица Белана, 12, подъезд 1 	52.59604046630435	39.55364041515763	 Липецк, улица Белана, 12, подъезд 1 , р-н Октябрьский	False	3.3262857995316346
8000	50	2	7	9	True	Липецк,  б-р Есенина, 4 	52.59604046630435	39.55364041515763	Липецк,  б-р Есенина, 4 , р-н Октябрьский	False	3.3262857995316346
10000	23	1	4	5	True	Липецк,  Юношеская ул., 23А 	52.58225965	39.46914568458386	Липецк,  Юношеская ул., 23А , р-н Советский	False	9.219757587638693
9500	60	2	7	12	True	Липецк,  ул. М.И. Неделина 	52.6000513	39.5800154	Липецк,  ул. М.И. Неделина , р-н Октябрьский	False	1.5619272601224998
10000	52	2	5	10	True	Липецк,  ул. Вилена Огнева, 2 	52.54052865	39.573896722178645	Липецк,  ул. Вилена Огнева, 2 , р-н Октябрьский	False	7.772510344972676
9000	33	1	3	5	True	Липецк,  пр-т Победы, 10 	52.59604046630435	39.55364041515763	Липецк,  пр-т Победы, 10 , р-н Октябрьский	False	3.3262857995316346
7000	44	2	1	5	False	Липецк,  улица Гагарина 	52.623450500000004	39.56809757905714	Липецк,  улица Гагарина , р-н Правобережный	False	2.6006988135076465
11000	55	2	3	10	True	Липецк,  пр-т Победы, 5А 	52.59604046630435	39.55364041515763	Липецк,  пр-т Победы, 5А , р-н Октябрьский	False	3.3262857995316346
15000	35	1	2	9	False	Липецк,  Полиграфическая ул. 	52.5999863	39.5224447	Липецк,  Полиграфическая ул. , р-н Советский	False	5.214088049683256
15000	36	1	1	4	True	Липецк,  Парковая ул., 7 	52.5816474	39.614624	Липецк,  Парковая ул., 7 , р-н Левобережный	False	3.225163473520046
8500	38	1	17	24	True	 Липецк, улица Славянова, 3 	52.60634305	39.50724167434744	 Липецк, улица Славянова, 3 , р-н Советский	False	6.1564517779865415
11000	43	2	3	3	False	Липецк,  ул. Володи Бачурина, 1 	52.5442269	39.573119254176035	Липецк,  ул. Володи Бачурина, 1 , р-н Октябрьский	True	7.382569061626818
25000	37	1	6	9	False	Липецк,  ул. Качалова, 3 	52.622786000000005	39.57912609999999	Липецк,  ул. Качалова, 3 , р-н Правобережный	False	2.0143293009522467
7000	36	1	8	9	False	Липецк,  пр-т имени 60-летия СССР, 45 	52.59604046630435	39.55364041515763	Липецк,  пр-т имени 60-летия СССР, 45 , р-н Октябрьский	False	3.3262857995316346
9000	32.2	1	7	9	False	Липецк,  ул. Циолковского, 8/1 	52.615335900000005	39.5510331	Липецк,  ул. Циолковского, 8/1 , р-н Советский	False	3.2651217710469624
10000	38	1	4	9	False	Липецк,  б-р Есенина 	52.5867794	39.5279722	Липецк,  б-р Есенина , р-н Октябрьский	False	5.342731217258959
8000	40	1	5	10	True	Липецк,  ул. 8 Марта, 20К4 	52.606487	39.574416	Липецк,  ул. 8 Марта, 20К4 , р-н Советский	False	1.6204133739536277
10000	21	1	5	5	False	Липецк,  ул. Циолковского, 4/2 	52.616263149999995	39.54811170980631	Липецк,  ул. Циолковского, 4/2 , р-н Советский	True	3.4814245823256535
9000	37	1	6	9	True	Липецк,  ул. Мичурина, 38А 	52.5955962	39.57211085463406	Липецк,  ул. Мичурина, 38А , р-н Октябрьский	False	2.2904452710406003
11000	70	3	3	10	True	Липецк,  15-й микрорайон, 19 	52.5970182	39.54402225	Липецк,  15-й микрорайон, 19 , р-н Октябрьский	False	3.8872508897434495
8000	40	1	4	10	True	Липецк,  Политехническая ул., 15 	52.608795650000005	39.50582898638413	Липецк,  Политехническая ул., 15 , р-н Советский	False	6.245849189435565
9000	49	1	9	10	False	Липецк,  ул. Космонавтов, 46/4 	52.618199700000005	39.561313929800676	Липецк,  ул. Космонавтов, 46/4 , р-н Советский	False	2.697427732467187
7500	35	1	1	10	False	Липецк,  ул. Леонтия Кривенкова, 37 	52.5913997	39.514808	Липецк,  ул. Леонтия Кривенкова, 37 , р-н Октябрьский	False	5.962303365733157
6000	36	1	10	10	True	Липецк,  ул. Стаханова, 12 	52.59467175	39.52951765271529	Липецк,  ул. Стаханова, 12 , р-н Октябрьский	True	4.9012872134873255
12000	50	2	2	10	True	Липецк,  ул. Стаханова, 34 	52.58765445	39.5221937	Липецк,  ул. Стаханова, 34 , р-н Октябрьский	False	5.652162386592224
10000	45	2	5	5	True	 Советский район, Липецк, 9-й микрорайон, 17 	52.59604046630435	39.55364041515763	 Советский район, Липецк, 9-й микрорайон, 17 , р-н Советский	True	3.3262857995316346
11000	31	1	6	9	False	Липецк,  ул. Филипченко, 11/3 	52.605059100000005	39.54926007452559	Липецк,  ул. Филипченко, 11/3 , р-н Советский	False	3.3301407310553195
13000	32	1	8	9	False	Липецк,  ул. Зегеля, 27/1 	52.61603465	39.597060400000004	Липецк,  ул. Зегеля, 27/1 , р-н Советский	False	0.806479542754582
8000	36	1	12	14	True	Липецк,  пр-т Победы, 110 	52.59604046630435	39.55364041515763	Липецк,  пр-т Победы, 110 , р-н Октябрьский	False	3.3262857995316346
10000	45.3	2	2	5	True	Липецк,  Липовская ул., 4 	52.6134926	39.58894264863478	Липецк,  Липовская ул., 4 , р-н Советский	False	0.8063489986491303
8000	62	3	7	9	False	Липецк,  ул. Катукова, 36 	52.589752450000006	39.517406371020876	Липецк,  ул. Катукова, 36 , р-н Октябрьский	False	5.860004176090544
12000	49	2	5	5	False	Липецк,  Пролетарская ул., 10 	52.615336	39.606154271042726	Липецк,  Пролетарская ул., 10 , р-н Правобережный	True	0.9110964158242593
9000	40	1	3	5	False	Липецк,  Студёновская ул., 17А 	52.619929150000004	39.621196274332505	Липецк,  Студёновская ул., 17А , р-н Правобережный	False	1.9982645128644267
8000	40	1	3	10	True	Липецк,  ул Котовского, 14 	52.5970024	39.584864621369135	Липецк,  ул Котовского, 14 , р-н Октябрьский	False	1.5881727139399933
8000	34	1	8	10	True	Липецк,  ул. Мистюкова, 4 	52.581308	39.5022308	Липецк,  ул. Мистюкова, 4 , р-н Октябрьский	False	7.176914469176777
13000	60	1	3	9	False	Липецк,  ул. Юных Натуралистов 	52.5980028	39.5659912	Липецк,  ул. Юных Натуралистов , р-н Октябрьский	False	2.4815396817542092
10000	41	1	3	17	False	Липецк,  ул. 50 лет НЛМК, 17А 	52.5874911	39.58076188384845	Липецк,  ул. 50 лет НЛМК, 17А , р-н Октябрьский	False	2.645291250094884
9500	36	1	8	9	True	Липецк,  ул. Водопьянова, 18 	52.5929764	39.54584650533812	Липецк,  ул. Водопьянова, 18 , р-н Октябрьский	False	3.9503703252684987
12000	44	2	1	5	True	Липецк,  Интернациональная ул., 71 	52.617654349999995	39.61102693370875	Липецк,  Интернациональная ул., 71 , р-н Правобережный	False	1.3204175738676815
8000	35	1	5	5	True	Липецк,  ул. Гагарина, 55/2 	52.6162566	39.58976737826275	Липецк,  ул. Гагарина, 55/2 , р-н Советский	True	0.9997911643109876
8000	65	3	8	9	False	Липецк,  Площадь Победы д. 3 А 	52.6040932	39.5737552	Липецк,  Площадь Победы д. 3 А , р-н Октябрьский	False	1.7262274538342846
13000	113	3	1	5	True	Липецк,  ул Энергостроителей 	52.5322876	39.7901714	Липецк,  ул Энергостроителей , р-н Левобережный	False	15.56370828268742
7500	35.4	1	3	5	False	Липецк,  ул. Меркулова, 53 	52.582704050000004	39.531283699999996	Липецк,  ул. Меркулова, 53 , р-н Октябрьский	False	5.375503259109837
8000	33	1	5	10	True	Липецк,  ул Ушинского 7 	52.642765100000005	39.654146652940646	Липецк,  ул Ушинского 7 , р-н Правобережный	False	5.3587852210251805
7000	68	3	2	10	True	Липецк,  ул. Белана, 14 	52.5862385	39.5074866	Липецк,  ул. Белана, 14 , р-н Октябрьский	False	6.62943143834611
16000	72	2	5	9	True	Липецк,  Индустриальная ул., 3 	52.591034699999994	39.56459100187709	Липецк,  Индустриальная ул., 3 , р-н Октябрьский	False	3.007683051137609
30000	65	3	4	10	True	Липецк,  ул. Леонтия Кривенкова, 7 	52.59062835	39.514814879309824	Липецк,  ул. Леонтия Кривенкова, 7 , р-н Октябрьский	False	5.99035453214639
8000	31	1	3	5	False	Липецк,  ул. Космонавтов, 68 	52.6130936	39.55082617505384	Липецк,  ул. Космонавтов, 68 , р-н Советский	False	3.2327867083657886
8500	23	1	3	5	True	Липецк,  пр-т Мира, 5А 	52.59604046630435	39.55364041515763	Липецк,  пр-т Мира, 5А , р-н Левобережный	False	3.3262857995316346
28000	47	2	1	5	True	Липецк,  ул. 8 Марта 	52.606487	39.574416	Липецк,  ул. 8 Марта , р-н Советский	False	1.6204133739536277
25000	18	1	5	5	False	Липецк,  ул. Циолковского, 4/2 	52.616263149999995	39.54811170980631	Липецк,  ул. Циолковского, 4/2 , р-н Советский	True	3.4814245823256535
20000	36	1	2	5	True	Липецк,  ул. Гагарина, 32 	52.61800855	39.6034864	Липецк,  ул. Гагарина, 32 , р-н Правобережный	False	1.0881747461479498
7000	32	1	4	5	False	Липецк,  ул. Гагарина, 117 	52.621984600000005	39.56328446847533	Липецк,  ул. Гагарина, 117 , р-н Советский	False	2.7725460499237506
6500	18	1	5	5	False	Липецк,  Волгоградская ул., 7А 	52.5405733	39.585912505949175	Липецк,  Волгоградская ул., 7А , р-н Октябрьский	True	7.637705689417417
6000	34	1	7	10	False	Липецк,  Жуковского, д. 25 	52.5374827	39.5722579	Липецк,  Жуковского, д. 25 , р-н Октябрьский	False	8.127347318800291
8000	46	2	3	5	True	Липецк,  ул. Механизаторов, 13 	52.587255	39.560923370767895	Липецк,  ул. Механизаторов, 13 , р-н Октябрьский	False	3.4749703839719905
7000	50	2	4	5	True	Липецк,  Пролетарская ул. 	52.6155316	39.6055063	Липецк,  Пролетарская ул. , р-н Правобережный	False	0.9032095664932132
10000	36	1	3	9	True	Липецк,  ул. Жуковского, 13А 	52.537711599999994	39.574766167481975	Липецк,  ул. Жуковского, 13А , р-н Октябрьский	False	8.067511333473153
5500	37	1	2	5	True	Липецк,  ул. 4-й Пятилетки 	52.6204041	39.6200824	Липецк,  ул. 4-й Пятилетки , р-н Правобережный	False	1.973705244443742